First line of the IotaGFTapp 1.3.3 GPS sentence log file
[STARTING!]*27
{00116432 $GPDTM,W84,,0.0,N,0.0,E,0.0,W84*6F}*34
{00128918 $GPRMC,,V,,,,,,,,,,N*53}*76
{00135457 $GPGGA,,,,,,0,00,99.99,,,,,,*48}*6D
{001460C1 $PUBX,04,235946.00,120136,604786.00,65535,16D,0,0.000,21*5A}*77
{MODE WaitingForGPS}*71
{002FF0E9 $GPDTM,W84,,0.0,N,0.0,E,0.0,W84*6F}*49
{003115CE $GPRMC,,V,,,,,,,,,,N*53}*7D
{0031E10E $GPGGA,,,,,,0,00,99.99,,,,,,*48}*6F
{0032ED80 $PUBX,04,235947.00,120136,604787.00,65535,16D,0,0.000,21*5A}*0E
{MODE WaitingForGPS}*71
{004E73C6 $GPDTM,W84,,0.0,N,0.0,E,0.0,W84*6F}*37
{004F98AC $GPRMC,,V,,,,,,,,,,N*53}*0C
{005063EB $GPGGA,,,,,,0,00,99.99,,,,,,*48}*6B
{0051706A $PUBX,04,235948.00,120136,604788.00,65535,16D,0,0.000,21*5A}*72
{MODE WaitingForGPS}*71
{006CF963 $GPDTM,W84,,0.0,N,0.0,E,0.0,W84*6F}*38
{006E1E54 $GPRMC,,V,,,,,,,,,,N*53}*7B
{006EE987 $GPGGA,,,,,,0,00,99.99,,,,,,*48}*6C
{006FF5FA $PUBX,04,235949.00,120136,604789.00,65535,16D,0,0.000,21*5A}*02
{MODE WaitingForGPS}*71
{008B807B $GPDTM,W84,,0.0,N,0.0,E,0.0,W84*6F}*30
{008CA555 $GPRMC,,V,,,,,,,,,,N*53}*72
{008D70A0 $GPGGA,,,,,,0,00,99.99,,,,,,*48}*66
{008E7D13 $PUBX,04,235950.00,120136,604790.00,65535,16D,0,0.000,21*5A}*0A
{MODE WaitingForGPS}*71
{00AA0287 $GPDTM,W84,,0.0,N,0.0,E,0.0,W84*6F}*3A
{00AB2758 $GPRMC,,V,,,,,,,,,,N*53}*76
{00ABF2A0 $GPGGA,,,,,,0,00,99.99,,,,,,*48}*6A
{00ACFF0A $PUBX,04,235951.00,120136,604791.00,65535,16D,0,0.000,21*5A}*75
{MODE WaitingForGPS}*71
{00C8886E $GPDTM,W84,,0.0,N,0.0,E,0.0,W84*6F}*3F
{00C9AD48 $GPRMC,,V,,,,,,,,,,N*53}*0E
{00CA7893 $GPGGA,,,,,,0,00,99.99,,,,,,*48}*6B
{00CB8506 $PUBX,04,235952.00,120136,604792.00,65535,16D,0,0.000,21*5A}*0C
{MODE WaitingForGPS}*71
{00E7086C $GPDTM,W84,,0.0,N,0.0,E,0.0,W84*6F}*38
{00E82D5C $GPRMC,,V,,,,,,,,,,N*53}*00
{00E8F89B $GPGGA,,,,,,0,00,99.99,,,,,,*48}*14
{00EA0504 $PUBX,04,235953.00,120136,604793.00,65535,16D,0,0.000,21*5A}*03
{MODE WaitingForGPS}*71
{0105922E $GPDTM,W84,,0.0,N,0.0,E,0.0,W84*6F}*4F
{0106B715 $GPRMC,,V,,,,,,,,,,N*53}*0B
{01078254 $GPGGA,,,,,,0,00,99.99,,,,,,*48}*61
{01088ED2 $PUBX,04,235954.00,120136,604794.00,65535,16D,0,0.000,21*5A}*04
{MODE WaitingForGPS}*71
{0124174F $GPDTM,W84,,0.0,N,0.0,E,0.0,W84*6F}*44
{01253C29 $GPRMC,,V,,,,,,,,,,N*53}*00
{01260774 $GPGGA,,,,,,0,00,99.99,,,,,,*48}*6D
{012713E7 $PUBX,04,235955.00,120136,604795.00,65535,16D,0,0.000,21*5A}*72
{MODE WaitingForGPS}*71
{01429E06 $GPDTM,W84,,0.0,N,0.0,E,0.0,W84*6F}*4A
{0143C2ED $GPRMC,,V,,,,,,,,,,N*53}*0B
{01448E38 $GPGGA,,,,,,0,00,99.99,,,,,,*48}*1B
{01459A95 $PUBX,04,235956.00,120136,604796.00,65535,16D,0,0.000,21*5A}*72
{MODE WaitingForGPS}*71
{016124B6 $GPDTM,W84,,0.0,N,0.0,E,0.0,W84*6F}*43
{01624987 $GPRMC,,V,,,,,,,,,,N*53}*7A
{01631501 $GPGGA,,,,,,0,00,99.99,,,,,,*48}*6D
{01642145 $PUBX,04,235957.00,120136,604797.00,65535,16D,0,0.000,21*5A}*07
{MODE WaitingForGPS}*71
{017FA941 $GPDTM,W84,,0.0,N,0.0,E,0.0,W84*6F}*3A
{0180CE1C $GPRMC,,V,,,,,,,,,,N*53}*00
{01819966 $GPGGA,,,,,,0,00,99.99,,,,,,*48}*64
{0182A5D9 $PUBX,04,235958.00,120136,604798.00,65535,16D,0,0.000,21*5A}*04
{MODE WaitingForGPS}*71
{019E2F9D $GPDTM,W84,,0.0,N,0.0,E,0.0,W84*6F}*43
{019F5477 $GPRMC,,V,,,,,,,,,,N*53}*02
{01A01FC2 $GPGGA,,,,,,0,00,99.99,,,,,,*48}*1A
{01A12C20 $PUBX,04,235959.00,120136,604799.00,65535,16D,0,0.000,21*5A}*04
{MODE WaitingForGPS}*71
{01BCAEE8 $GPDTM,W84,,0.0,N,0.0,E,0.0,W84*6F}*4E
{01BDD3C2 $GPRMC,,V,,,,,,,,,,N*53}*7C
{01BE9F0D $GPGGA,,,,,,0,00,99.99,,,,,,*48}*61
{01BFAB80 $PUBX,04,000000.00,060180,0.00,0,16D,0,0.000,21*66}*40
{MODE WaitingForGPS}*71
{01DB33B4 $GPDTM,W84,,0.0,N,0.0,E,0.0,W84*6F}*46
{01DC589A $GPRMC,,V,,,,,,,,,,N*53}*0E
{01DD23D9 $GPGGA,,,,,,0,00,99.99,,,,,,*48}*11
{01DE3043 $PUBX,04,000001.00,060180,1.00,0,16D,0,0.000,21*66}*4A
{MODE WaitingForGPS}*71
{01F9B9BB $GPDTM,W84,,0.0,N,0.0,E,0.0,W84*6F}*32
{01FADE8D $GPRMC,,V,,,,,,,,,,N*53}*06
{01FBA9E0 $GPGGA,,,,,,0,00,99.99,,,,,,*48}*64
{01FCB65F $PUBX,04,000002.00,060180,2.00,0,16D,0,0.000,21*66}*4D
{MODE WaitingForGPS}*71
{0217FE3D $GPDTM,W84,,0.0,N,0.0,E,0.0,W84*6F}*47
{0219230E $GPRMC,,V,,,,,,,,,,N*53}*03
{0219EE62 $GPGGA,,,,,,0,00,99.99,,,,,,*48}*62
{021AFAC0 $PUBX,04,000003.00,060180,3.00,0,16D,0,0.000,21*66}*48
{MODE WaitingForGPS}*71
{02367BAF $GPDTM,W84,,0.0,N,0.0,E,0.0,W84*6F}*42
{0237A095 $GPRMC,,V,,,,,,,,,,N*53}*06
{02386BE9 $GPGGA,,,,,,0,00,99.99,,,,,,*48}*6D
{02397868 $PUBX,04,000004.00,060180,4.00,0,16D,0,0.000,21*66}*47
{MODE WaitingForGPS}*71
{0255089D $GPDTM,W84,,0.0,N,0.0,E,0.0,W84*6F}*40
{02562D77 $GPRMC,,V,,,,,,,,,,N*53}*0A
{0256F8CB $GPGGA,,,,,,0,00,99.99,,,,,,*48}*12
{02580534 $PUBX,04,000005.00,060180,5.00,0,16D,0,0.000,21*66}*43
{MODE WaitingForGPS}*71
{02738C36 $GPDTM,W84,,0.0,N,0.0,E,0.0,W84*6F}*4F
{0274B11D $GPRMC,,V,,,,,,,,,,N*53}*7A
{02757C5B $GPGGA,,,,,,0,00,99.99,,,,,,*48}*6F
{027688C6 $PUBX,04,000006.00,060180,6.00,0,16D,0,0.000,21*66}*38
{MODE WaitingForGPS}*71
{02921138 $GPDTM,W84,,0.0,N,0.0,E,0.0,W84*6F}*35
{02933612 $GPRMC,,V,,,,,,,,,,N*53}*73
{02940182 $GPGGA,,,,,,0,00,99.99,,,,,,*48}*68
{02950DD0 $PUBX,04,000007.00,060180,7.00,0,16D,0,0.000,21*66}*40
{MODE WaitingForGPS}*71
{02B09698 $GPDTM,W84,,0.0,N,0.0,E,0.0,W84*6F}*49
{02B1BB72 $GPRMC,,V,,,,,,,,,,N*53}*09
{02B286BD $GPGGA,,,,,,0,00,99.99,,,,,,*48}*16
{02B3932F $PUBX,04,000008.00,060180,8.00,0,16D,0,0.000,21*66}*43
{MODE WaitingForGPS}*71
{02CF1ABB $GPDTM,W84,,0.0,N,0.0,E,0.0,W84*6F}*40
{02D03F8C $GPRMC,,V,,,,,,,,,,N*53}*05
{02D10AE0 $GPGGA,,,,,,0,00,99.99,,,,,,*48}*1F
{02D2174A $PUBX,04,000009.00,060180,9.00,0,16D,0,0.000,21*66}*49
{MODE WaitingForGPS}*71
{02EDA01A $GPDTM,W84,,0.0,N,0.0,E,0.0,W84*6F}*35
{02EEC4F4 $GPRMC,,V,,,,,,,,,,N*53}*7A
{02EF903F $GPGGA,,,,,,0,00,99.99,,,,,,*48}*11
{02F09CB2 $PUBX,04,000010.00,060180,10.00,0,16D,0,0.000,21*56}*03
{MODE WaitingForGPS}*71
{030C269D $GPDTM,W84,,0.0,N,0.0,E,0.0,W84*6F}*3E
{030D4B78 $GPRMC,,V,,,,,,,,,,N*53}*73
{030E16C3 $GPGGA,,,,,,0,00,99.99,,,,,,*48}*6D
{030F2336 $PUBX,04,000011.00,060180,11.00,0,16D,0,0.000,21*56}*0C
{MODE WaitingForGPS}*71
{032AA8DB $GPDTM,W84,,0.0,N,0.0,E,0.0,W84*6F}*38
{032BCDCA $GPRMC,,V,,,,,,,,,,N*53}*0B
{032C98FF $GPGGA,,,,,,0,00,99.99,,,,,,*48}*1F
{032DA572 $PUBX,04,000012.00,060180,12.00,0,16D,0,0.000,21*56}*79
{MODE WaitingForGPS}*71
{03492D5A $GPDTM,W84,,0.0,N,0.0,E,0.0,W84*6F}*3B
{034A5240 $GPRMC,,V,,,,,,,,,,N*53}*08
{034B1D7F $GPGGA,,,,,,0,00,99.99,,,,,,*48}*1D
{034C29E9 $PUBX,04,000013.00,060180,13.00,0,16D,0,0.000,21*56}*7E
{MODE WaitingForGPS}*71
{0367B4A5 $GPDTM,W84,,0.0,N,0.0,E,0.0,W84*6F}*37
{0368D976 $GPRMC,,V,,,,,,,,,,N*53}*0C
{0369A4C9 $GPGGA,,,,,,0,00,99.99,,,,,,*48}*6F
{036AB134 $PUBX,04,000014.00,060180,14.00,0,16D,0,0.000,21*56}*7D
{MODE WaitingForGPS}*71
{0386312F $GPDTM,W84,,0.0,N,0.0,E,0.0,W84*6F}*4C
{03875609 $GPRMC,,V,,,,,,,,,,N*53}*7B
{03882169 $GPGGA,,,,,,0,00,99.99,,,,,,*48}*63
{03892DC6 $PUBX,04,000015.00,060180,15.00,0,16D,0,0.000,21*56}*7C
{MODE WaitingForGPS}*71
{03A4BC7E $GPDTM,W84,,0.0,N,0.0,E,0.0,W84*6F}*32
{03A5E14F $GPRMC,,V,,,,,,,,,,N*53}*0C
{03A6ACA3 $GPGGA,,,,,,0,00,99.99,,,,,,*48}*68
{03A7B90D $PUBX,04,000016.00,060180,16.00,0,16D,0,0.000,21*56}*07
{MODE WaitingForGPS}*71
{03C34245 $GPDTM,W84,,0.0,N,0.0,E,0.0,W84*6F}*43
{03C4672B $GPRMC,,V,,,,,,,,,,N*53}*78
{03C5326A $GPGGA,,,,,,0,00,99.99,,,,,,*48}*6F
{03C63ED4 $PUBX,04,000017.00,060180,17.00,0,16D,0,0.000,21*56}*0D
{MODE WaitingForGPS}*71
{03E1C632 $GPDTM,W84,,0.0,N,0.0,E,0.0,W84*6F}*34
{03E2EB0C $GPRMC,,V,,,,,,,,,,N*53}*7D
{03E3B657 $GPGGA,,,,,,0,00,99.99,,,,,,*48}*6F
{03E4C2B5 $PUBX,04,000018.00,060180,18.00,0,16D,0,0.000,21*56}*09
{MODE WaitingForGPS}*71
{04004CA9 $GPDTM,W84,,0.0,N,0.0,E,0.0,W84*6F}*3C
{04017190 $GPRMC,,V,,,,,,,,,,N*53}*77
{04023CF8 $GPGGA,,,,,,0,00,99.99,,,,,,*48}*64
{04034938 $PUBX,04,000019.00,060180,19.00,0,16D,0,0.000,21*56}*7C
{MODE WaitingForGPS}*71
{041ED676 $GPDTM,W84,,0.0,N,0.0,E,0.0,W84*6F}*34
{041FFB50 $GPRMC,,V,,,,,,,,,,N*53}*0F
{0420C69B $GPGGA,,,,,,0,00,99.99,,,,,,*48}*64
{0421D30E $PUBX,04,000020.00,060180,20.00,0,16D,0,0.000,21*56}*78
{MODE WaitingForGPS}*71
{043D5ACC $GPDTM,W84,,0.0,N,0.0,E,0.0,W84*6F}*30
{043E7F9D $GPRMC,,V,,,,,,,,,,N*53}*03
{043F4ADB $GPGGA,,,,,,0,00,99.99,,,,,,*48}*6E
{0440575B $PUBX,04,000021.00,060180,21.00,0,16D,0,0.000,21*56}*08
{MODE WaitingForGPS}*71
{045BD8AF $GPDTM,W84,,0.0,N,0.0,E,0.0,W84*6F}*3F
{045CFD8A $GPRMC,,V,,,,,,,,,,N*53}*74
{045DC8C0 $GPGGA,,,,,,0,00,99.99,,,,,,*48}*11
{045ED533 $PUBX,04,000022.00,060180,22.00,0,16D,0,0.000,21*56}*78
{MODE WaitingForGPS}*71
{047A6599 $GPDTM,W84,,0.0,N,0.0,E,0.0,W84*6F}*46
{047B8A6B $GPRMC,,V,,,,,,,,,,N*53}*01
{047C55BE $GPGGA,,,,,,0,00,99.99,,,,,,*48}*1B
{047D6228 $PUBX,04,000023.00,060180,23.00,0,16D,0,0.000,21*56}*04
{MODE WaitingForGPS}*71
{0498EC3B $GPDTM,W84,,0.0,N,0.0,E,0.0,W84*6F}*45
{049A1103 $GPRMC,,V,,,,,,,,,,N*53}*02
{049ADC4C $GPGGA,,,,,,0,00,99.99,,,,,,*48}*60
{049BE8CA $PUBX,04,000024.00,060180,24.00,0,16D,0,0.000,21*56}*7D
{MODE WaitingForGPS}*71
{04BE5E85 $GPDTM,W84,,0.0,N,0.0,E,0.0,W84*6F}*49
{04BF835F $GPRMC,204439.00,V,,,,,,,,,,N*75}*27
{04C097DE $GPGGA,204439.00,,,,,0,00,99.99,,,,,,*6E}*4D
{04C1ED86 $PUBX,04,204439.00,120180,593079.00,0,16D,0,0.000,21*5A}*7F
{MODE WaitingForGPS}*71
{04DCE2A1 $GPDTM,W84,,0.0,N,0.0,E,0.0,W84*6F}*33
{04DE07A8 $GPRMC,204440.00,V,,,,,,,,,,N*7B}*5D
{04DF1C1B $GPGGA,204440.00,,,,,0,00,99.99,,,,,,*60}*49
{04E071BA $PUBX,04,204440.00,120180,593080.00,0,16D,0,0.000,21*52}*09
{MODE WaitingForGPS}*71
{04FB65D5 $GPDTM,W84,,0.0,N,0.0,E,0.0,W84*6F}*45
{04FC8ABC $GPRMC,204441.00,V,,,,,,,,,,N*7A}*5D
{04FD9F3B $GPGGA,204441.00,,,,,0,00,99.99,,,,,,*61}*46
{04FEF4E2 $PUBX,04,204441.00,120180,593081.00,0,16D,0,0.000,21*52}*7F
{MODE WaitingForGPS}*71
{0519EB38 $GPDTM,W84,,0.0,N,0.0,E,0.0,W84*6F}*36
{051B1029 $GPRMC,204442.00,V,,,,,,,,,,N*79}*23
{051C249C $GPGGA,204442.00,,,,,0,00,99.99,,,,,,*62}*45
{051D7A50 $PUBX,04,204442.00,120180,593082.00,0,16D,0,0.000,21*52}*7E
{MODE WaitingForGPS}*71
{0538706F $GPDTM,W84,,0.0,N,0.0,E,0.0,W84*6F}*4E
{05399549 $GPRMC,204443.00,V,,,,,,,,,,N*78}*51
{053AA9DD $GPGGA,204443.00,,,,,0,00,99.99,,,,,,*63}*41
{053BFF67 $PUBX,04,204443.00,120180,593083.00,0,16D,0,0.000,21*52}*08
{MODE WaitingForGPS}*71
{055BC916 $GPDTM,W84,,0.0,N,0.0,E,0.0,W84*6F}*38
{055CEDF0 $GPRMC,204444.00,V,,,,,,,,,,N*7F}*22
{055E0266 $GPGGA,204444.00,,,,,0,00,99.99,,,,,,*64}*39
{055F581B $PUBX,04,204444.00,120180,593084.00,0,16D,0,0.000,21*52}*75
{MODE WaitingForGPS}*71
{057578BD $GPDTM,W84,,0.0,N,0.0,E,0.0,W84*6F}*39
{05769D96 $GPRMC,204445.00,V,,,,,,,,,,N*7E}*52
{0577B216 $GPGGA,204445.00,,,,,0,00,99.99,,,,,,*65}*3C
{057907D6 $PUBX,04,204445.00,120180,593085.00,0,16D,0,0.000,21*52}*03
{MODE WaitingForGPS}*71
{0593FE9D $GPDTM,W84,,0.0,N,0.0,E,0.0,W84*6F}*46
{05952383 $GPRMC,204446.00,V,,,,,,,301124,,,N*78}*5C
{059668BB $GPGGA,204446.00,,,,,0,00,99.99,,,,,,*66}*4A
{0597BE7D $PUBX,04,204446.00,301124,593086.00,2342,16D,0,0.000,21*6A}*4A
{MODE WaitingForGPS}*71
{05B28289 $GPDTM,W84,,0.0,N,0.0,E,0.0,W84*6F}*49
{05B3A75B $GPRMC,204447.00,V,,,,,,,301124,,,N*79}*2A
{05B4ECB1 $GPGGA,204447.00,,,,,0,00,99.99,,,,,,*67}*48
{05B64253 $PUBX,04,204447.00,301124,593087.00,2342,16D,0,0.000,21*6A}*44
{MODE WaitingForGPS}*71
{05D10F5E $GPDTM,W84,,0.0,N,0.0,E,0.0,W84*6F}*41
{05D23439 $GPRMC,204448.00,V,,,,,,,301124,,,N*76}*21
{05D37971 $GPGGA,204448.00,,,,,0,00,99.99,,,,,,*68}*34
{05D4CF32 $PUBX,04,204448.00,301124,593088.00,2342,16D,0,0.000,21*6A}*44
{MODE WaitingForGPS}*71
{05EF8FA3 $GPDTM,W84,,0.0,N,0.0,E,0.0,W84*6F}*3D
{05F0B492 $GPRMC,204449.00,V,,,,,,,301124,,,N*77}*51
{05F1F9E0 $GPGGA,204449.00,,,,,0,00,99.99,,,,,,*69}*36
{05F34F82 $PUBX,04,204449.00,301124,593089.00,2342,16D,0,0.000,21*6A}*3D
{MODE WaitingForGPS}*71
{06133496 $GPDTM,W84,,0.0,N,0.0,E,0.0,W84*6F}*3B
{06145968 $GPRMC,204450.00,V,,,,,,,301124,,,N*7F}*27
{06159EA2 $GPGGA,204450.00,,,,,0,00,99.99,,,,,,*61}*43
{0616F456 $PUBX,04,204450.00,301124,593090.00,2342,16D,0,0.000,21*6A}*45
{MODE WaitingForGPS}*71
{062C960C $GPDTM,W84,,0.0,N,0.0,E,0.0,W84*6F}*3C
{062DBADD $GPRMC,204451.00,V,,,,,,,301124,,,N*7E}*57
{062F0022 $GPGGA,204451.00,,,,,0,00,99.99,,,,,,*60}*3C
{063055D7 $PUBX,04,204451.00,301124,593091.00,2342,16D,0,0.000,21*6A}*43
{MODE WaitingForGPS}*71
{064B1B16 $GPDTM,W84,,0.0,N,0.0,E,0.0,W84*6F}*33
{064C3FFC $GPRMC,204452.00,V,,,,,,,301124,,,N*7D}*27
{064D853F $GPGGA,204452.00,,,,,0,00,99.99,,,,,,*63}*40
{064EDAEB $PUBX,04,204452.00,301124,593092.00,2342,16D,0,0.000,21*6A}*40
{MODE WaitingForGPS}*71
{06699F04 $GPDTM,W84,,0.0,N,0.0,E,0.0,W84*6F}*45
{066AC3DF $GPRMC,204453.00,V,,,,,,,301124,,,N*7C}*23
{066C0938 $GPGGA,204453.00,,,,,0,00,99.99,,,,,,*62}*3F
{066D5ECF $PUBX,04,204453.00,301124,593093.00,2342,16D,0,0.000,21*6A}*34
{MODE WaitingForGPS}*71
{068824BF $GPDTM,W84,,0.0,N,0.0,E,0.0,W84*6F}*33
{06894991 $GPRMC,204454.00,V,,,,,,,301124,,,N*7B}*24
{068A8ECA $GPGGA,204454.00,,,,,0,00,99.99,,,,,,*65}*4E
{068BE47F $PUBX,04,204454.00,301124,593094.00,2342,16D,0,0.000,21*6A}*49
{MODE WaitingForGPS}*71
{06A6A34D $GPDTM,W84,,0.0,N,0.0,E,0.0,W84*6F}*44
{06A7C834 $GPRMC,204455.00,V,,,,,,,301124,,,N*7A}*28
{06A90D6C $GPGGA,204455.00,,,,,0,00,99.99,,,,,,*64}*31
{06AA6318 $PUBX,04,204455.00,301124,593095.00,2342,16D,0,0.000,21*6A}*3F
{MODE WaitingForGPS}*71
{06CA0335 $GPDTM,W84,,0.0,N,0.0,E,0.0,W84*6F}*36
{06CB281C $GPRMC,204456.00,V,,,,,,,301124,,,N*79}*20
{06CC6D72 $GPGGA,204456.00,,,,,0,00,99.99,,,,,,*67}*3F
{06CDC309 $PUBX,04,204456.00,301124,593096.00,2342,16D,0,0.000,21*6A}*4D
{MODE WaitingForGPS}*71
{06E3B43A $GPDTM,W84,,0.0,N,0.0,E,0.0,W84*6F}*43
{06E4D90B $GPRMC,204457.00,V,,,,,,,301124,,,N*78}*27
{06E61E64 $GPGGA,204457.00,,,,,0,00,99.99,,,,,,*66}*4D
{06E77404 $PUBX,04,204457.00,301124,593097.00,2342,16D,0,0.000,21*6A}*46
{MODE WaitingForGPS}*71
{07023AE7 $GPDTM,W84,,0.0,N,0.0,E,0.0,W84*6F}*32
{07035FCE $GPRMC,204458.00,V,,,,,,,301124,,,N*77}*2E
{0704A50F $GPGGA,204458.00,,,,,0,00,99.99,,,,,,*69}*4F
{0705FABB $PUBX,04,204458.00,301124,593098.00,2342,16D,0,0.000,21*6A}*30
{MODE WaitingForGPS}*71
{0720BEC0 $GPDTM,W84,,0.0,N,0.0,E,0.0,W84*6F}*46
{0721E39B $GPRMC,204459.00,V,,,,,,,301124,,,N*76}*56
{072328F3 $GPGGA,204459.00,,,,,0,00,99.99,,,,,,*68}*37
{07247E8B $PUBX,04,204459.00,301124,593099.00,2342,16D,0,0.000,21*6A}*3C
{MODE WaitingForGPS}*71
{073F42D6 $GPDTM,W84,,0.0,N,0.0,E,0.0,W84*6F}*31
{074067A8 $GPRMC,204500.00,V,,,,,,,301124,,,N*7B}*5D
{0741AD14 $GPGGA,204500.00,,,,,0,00,99.99,,,,,,*65}*4C
{074302A1 $PUBX,04,204500.00,301124,593100.00,2342,16D,0,0.000,21*66}*3C
{MODE WaitingForGPS}*71
{075DC925 $GPDTM,W84,,0.0,N,0.0,E,0.0,W84*6F}*3C
{075EEE13 $GPRMC,204501.00,V,,,,,,,301124,,,N*7A}*51
{07603358 $GPGGA,204501.00,,,,,0,00,99.99,,,,,,*64}*42
{07618904 $PUBX,04,204501.00,301124,593101.00,2342,16D,0,0.000,21*66}*4B
{MODE WaitingForGPS}*71
{077F242B $GPDTM,W84,,0.0,N,0.0,E,0.0,W84*6F}*37
{07804911 $GPRMC,204502.03,V,,,,,,,301124,,,N*7A}*26
{07818E60 $GPGGA,204502.03,,,,,0,00,99.99,,,,,,*64}*3B
{0782E3FF $PUBX,04,204502.03,301124,593102.02,2342,16D,-27444456,0.000,21*7C}*5B
{MODE WaitingForGPS}*71
{079A075F $GPDTM,W84,,0.0,N,0.0,E,0.0,W84*6F}*3C
{079B2C39 $GPRMC,204503.00,V,,,,,,,301124,,,N*78}*58
{079C7187 $GPGGA,204503.00,,,,,0,00,99.99,,,,,,*66}*3A
{079DC733 $PUBX,04,204503.00,301124,593103.00,2342,16D,-27444456,0.000,21*7D}*28
{MODE WaitingForGPS}*71
{07B87979 $GPDTM,W84,,0.0,N,0.0,E,0.0,W84*6F}*4A
{07B99E5F $GPRMC,204504.00,V,,,,,,,301124,,,N*7F}*55
{07BAE3A1 $GPGGA,204504.00,,,,,0,00,99.99,,,,,,*61}*4C
{07BC3944 $PUBX,04,204504.00,301124,593104.00,2342,16D,-27444456,0.000,21*7D}*2A
{MODE WaitingForGPS}*71
{07D6FE7A $GPDTM,W84,,0.0,N,0.0,E,0.0,W84*6F}*37
{07D82360 $GPRMC,204505.00,V,,,,,,,301124,,,N*7E}*58
{07D968AE $GPGGA,204505.00,,,,,0,00,99.99,,,,,,*60}*3E
{07DABE5A $PUBX,04,204505.00,301124,593105.00,2342,16D,-27444456,0.000,21*7D}*57
{MODE WaitingForGPS}*71
{07F57F3E $GPDTM,W84,,0.0,N,0.0,E,0.0,W84*6F}*44
{07F6A403 $GPRMC,204506.00,V,,,,,,,301124,,,N*7D}*27
{07F7E952 $GPGGA,204506.00,,,,,0,00,99.99,,,,,,*63}*43
{07F93F09 $PUBX,04,204506.00,301124,593106.00,2342,16D,-27444456,0.000,21*7D}*22
{MODE WaitingForGPS}*71
{081408AB $GPDTM,W84,,0.0,N,0.0,E,0.0,W84*6F}*31
{08152D99 $GPRMC,204507.00,V,,,,,,,301124,,,N*7C}*5A
{081672D3 $GPGGA,204507.00,,,,,0,00,99.99,,,,,,*62}*33
{0817C87F $PUBX,04,204507.00,301124,593107.00,2342,16D,-27444456,0.000,21*7D}*22
{MODE WaitingForGPS}*71
{0837A3CE $GPDTM,W84,,0.0,N,0.0,E,0.0,W84*6F}*4F
{0838C8B5 $GPRMC,204508.00,V,,,,,,,301124,,,N*73}*50
{083A0E01 $GPGGA,204508.00,,,,,0,00,99.99,,,,,,*6D}*39
{083B63AE $PUBX,04,204508.00,301124,593108.00,2342,16D,-27444456,0.000,21*7D}*5E
{MODE WaitingForGPS}*71
{085126C6 $GPDTM,W84,,0.0,N,0.0,E,0.0,W84*6F}*4A
{08524BB6 $GPRMC,204509.00,V,,,,,,,301124,,,N*72}*52
{085390EE $GPGGA,204509.00,,,,,0,00,99.99,,,,,,*6C}*36
{0854E69B $PUBX,04,204509.00,301124,593109.00,2342,16D,-27444456,0.000,21*7D}*27
{MODE WaitingForGPS}*71
{086FAC57 $GPDTM,W84,,0.0,N,0.0,E,0.0,W84*6F}*4F
{0870D128 $GPRMC,204510.00,V,,,,,,,301124,,,N*7A}*54
{08721682 $GPGGA,204510.00,,,,,0,00,99.99,,,,,,*64}*4E
{08736C22 $PUBX,04,204510.00,301124,593110.00,2342,16D,-27444456,0.000,21*7D}*5F
{MODE WaitingForGPS}*71
{088E2EB6 $GPDTM,W84,,0.0,N,0.0,E,0.0,W84*6F}*41
{088F5390 $GPRMC,204511.00,V,,,,,,,301124,,,N*7B}*5F
{089098C9 $GPGGA,204511.00,,,,,0,00,99.99,,,,,,*65}*34
{0891EE8B $PUBX,04,204511.00,301124,593111.00,2342,16D,-27444456,0.000,21*7D}*5C
{MODE WaitingForGPS}*71
{08ACB2E1 $GPDTM,W84,,0.0,N,0.0,E,0.0,W84*6F}*39
{08ADD7C7 $GPRMC,204512.00,V,,,,,,,301124,,,N*78}*55
{08AF1D29 $GPGGA,204512.00,,,,,0,00,99.99,,,,,,*66}*3F
{08B072AB $PUBX,04,204512.00,301124,593112.00,2342,16D,-27444456,0.000,21*7D}*5A
{MODE WaitingForGPS}*71
{08CB329F $GPDTM,W84,,0.0,N,0.0,E,0.0,W84*6F}*40
{08CC5770 $GPRMC,204513.00,V,,,,,,,301124,,,N*79}*52
{08CD9CC6 $GPGGA,204513.00,,,,,0,00,99.99,,,,,,*67}*4E
{08CEF272 $PUBX,04,204513.00,301124,593113.00,2342,16D,-27444456,0.000,21*7D}*59
{MODE WaitingForGPS}*71
{08EED0A4 $GPDTM,W84,,0.0,N,0.0,E,0.0,W84*6F}*3E
{08EFF593 $GPRMC,204514.00,V,,,,,,,301124,,,N*7E}*56
{08F13AC2 $GPGGA,204514.00,,,,,0,00,99.99,,,,,,*60}*32
{08F29083 $PUBX,04,204514.00,301124,593114.00,2342,16D,-27444456,0.000,21*7D}*58
{MODE WaitingForGPS}*71
{09082EE6 $GPDTM,W84,,0.0,N,0.0,E,0.0,W84*6F}*32
{090953C1 $GPRMC,204515.00,V,,,,,,,301124,,,N*7F}*52
{090A990F $GPGGA,204515.00,,,,,0,00,99.99,,,,,,*61}*40
{090BEEBB $PUBX,04,204515.00,301124,593115.00,2342,16D,-27444456,0.000,21*7D}*5D
{MODE WaitingForGPS}*71
{0926B4B5 $GPDTM,W84,,0.0,N,0.0,E,0.0,W84*6F}*3B
{0927D987 $GPRMC,204516.00,V,,,,,,,301124,,,N*7C}*5E
{09291EE0 $GPGGA,204516.00,,,,,0,00,99.99,,,,,,*62}*4D
{092A7480 $PUBX,04,204516.00,301124,593116.00,2342,16D,-27444456,0.000,21*7D}*57
{MODE WaitingForGPS}*71
{094537E7 $GPDTM,W84,,0.0,N,0.0,E,0.0,W84*6F}*49
{09465CC1 $GPRMC,204517.00,V,,,,,,,301124,,,N*7D}*29
{0947A20F $GPGGA,204517.00,,,,,0,00,99.99,,,,,,*63}*41
{0948F7A7 $PUBX,04,204517.00,301124,593117.00,2342,16D,-27444456,0.000,21*7D}*24
{MODE WaitingForGPS}*71
{0963BCF8 $GPDTM,W84,,0.0,N,0.0,E,0.0,W84*6F}*44
{0964E1DF $GPRMC,204518.00,V,,,,,,,301124,,,N*72}*22
{0966270E $GPGGA,204518.00,,,,,0,00,99.99,,,,,,*6C}*48
{09677CC3 $PUBX,04,204518.00,301124,593118.00,2342,16D,-27444456,0.000,21*7D}*2A
{MODE WaitingForGPS}*71
{09824348 $GPDTM,W84,,0.0,N,0.0,E,0.0,W84*6F}*3F
{0983682F $GPRMC,204519.00,V,,,,,,,301124,,,N*73}*27
{0984AD70 $GPGGA,204519.00,,,,,0,00,99.99,,,,,,*6D}*30
{09860313 $PUBX,04,204519.00,301124,593119.00,2342,16D,-27444456,0.000,21*7D}*20
{MODE WaitingForGPS}*71
{09A5E0FA $GPDTM,W84,,0.0,N,0.0,E,0.0,W84*6F}*38
{09A705B9 $GPRMC,204520.00,V,,,,,,,301124,,,N*79}*5E
{09A84B18 $GPGGA,204520.00,,,,,0,00,99.99,,,,,,*67}*41
{09A9A0C4 $PUBX,04,204520.00,301124,593120.00,2342,16D,-27444456,0.000,21*7D}*51
{MODE WaitingForGPS}*71
{09BF4B96 $GPDTM,W84,,0.0,N,0.0,E,0.0,W84*6F}*43
{09C07068 $GPRMC,204521.00,V,,,,,,,301124,,,N*78}*2C
{09C1B5BD $GPGGA,204521.00,,,,,0,00,99.99,,,,,,*66}*44
{09C30B4B $PUBX,04,204521.00,301124,593121.00,2342,16D,-27444456,0.000,21*7D}*5B
{MODE WaitingForGPS}*71
{09DDD128 $GPDTM,W84,,0.0,N,0.0,E,0.0,W84*6F}*41
{09DEF602 $GPRMC,204522.00,V,,,,,,,301124,,,N*7B}*5C
{09E03B5C $GPGGA,204522.00,,,,,0,00,99.99,,,,,,*65}*35
{09E190F3 $PUBX,04,204522.00,301124,593122.00,2342,16D,-27444456,0.000,21*7D}*27
{MODE WaitingForGPS}*71
{09FC67F9 $GPDTM,W84,,0.0,N,0.0,E,0.0,W84*6F}*45
{09FD8CD2 $GPRMC,204523.00,V,,,,,,,301124,,,N*7A}*22
{09FED20C $GPGGA,204523.00,,,,,0,00,99.99,,,,,,*64}*41
{0A0027C3 $PUBX,04,204523.00,301124,593123.00,2342,16D,-27444456,0.000,21*7D}*22
{MODE WaitingForGPS}*71
{0A1AE49F $GPDTM,W84,,0.0,N,0.0,E,0.0,W84*6F}*38
{0A1C097C $GPRMC,204524.00,V,,,,,,,301124,,,N*7D}*58
{0A1D4EB5 $GPGGA,204524.00,,,,,0,00,99.99,,,,,,*63}*4C
{0A1EA46A $PUBX,04,204524.00,301124,593124.00,2342,16D,-27444456,0.000,21*7D}*21
{MODE WaitingForGPS}*71
{0A39732E $GPDTM,W84,,0.0,N,0.0,E,0.0,W84*6F}*3F
{0A3A9800 $GPRMC,204525.00,V,,,,,,,301124,,,N*7C}*22
{0A3BDD57 $GPGGA,204525.00,,,,,0,00,99.99,,,,,,*62}*4C
{0A3D32F9 $PUBX,04,204525.00,301124,593125.00,2342,16D,-27444456,0.000,21*7D}*5E
{MODE WaitingForGPS}*71
{0A5BA5EA $GPDTM,W84,,0.0,N,0.0,E,0.0,W84*6F}*41
{0A5CCAD1 $GPRMC,204525.97,V,,,,,,,301124,,,N*72}*2F
{0A5E102A $GPGGA,204525.97,,,,,0,00,99.99,,,,,,*6C}*42
{0A5F65CB $PUBX,04,204525.97,301124,593125.97,2342,16D,1763327,0.000,21*63}*4E
{MODE WaitingForGPS}*71
{0A776BCB $GPDTM,W84,,0.0,N,0.0,E,0.0,W84*6F}*33
{0A7890B2 $GPRMC,204527.00,V,,,,,,,301124,,,N*7E}*23
{0A79D5F4 $GPGGA,204527.00,,,,,0,00,99.99,,,,,,*60}*32
{0A7B2BAB $PUBX,04,204527.00,301124,593127.00,2342,16D,1763327,0.000,21*63}*39
{MODE WaitingForGPS}*71
{0A95F249 $GPDTM,W84,,0.0,N,0.0,E,0.0,W84*6F}*33
{0A971711 $GPRMC,204528.00,V,,,,,,,301124,,,N*71}*26
{0A985C67 $GPGGA,204528.00,,,,,0,00,99.99,,,,,,*6F}*30
{0A99B215 $PUBX,04,204528.00,301124,593128.00,2342,16D,1761259,0.000,21*69}*4B
{MODE WaitingForGPS}*71
{0AB474D7 $GPDTM,W84,,0.0,N,0.0,E,0.0,W84*6F}*40
{0AB599A9 $GPRMC,204529.00,V,,,,,,,301124,,,N*70}*21
{0AB6DEF6 $GPGGA,204529.00,,,,,0,00,99.99,,,,,,*6E}*41
{0AB8348D $PUBX,04,204529.00,301124,593129.00,2342,16D,1761259,0.000,21*69}*3E
{MODE WaitingForGPS}*71
{0AD2F80E $GPDTM,W84,,0.0,N,0.0,E,0.0,W84*6F}*3B
{0AD41CF3 $GPRMC,204530.00,V,,,,,,,301124,,,N*78}*59
{0AD5622C $GPGGA,204530.00,,,,,0,00,99.99,,,,,,*66}*3B
{0AD6B7ED $PUBX,04,204530.00,301124,593130.00,2342,16D,1765294,0.000,21*6C}*46
{MODE WaitingForGPS}*71
{0AF167AD $GPDTM,W84,,0.0,N,0.0,E,0.0,W84*6F}*35
{0AF28C87 $GPRMC,204531.00,V,,,,,,,301124,,,N*79}*2E
{0AF3D1D5 $GPGGA,204531.00,,,,,0,00,99.99,,,,,,*67}*4E
{0AF52777 $PUBX,04,204531.00,301124,593131.00,2342,16D,1765294,0.000,21*6C}*36
{MODE WaitingForGPS}*71
{0B151168 $GPDTM,W84,,0.0,N,0.0,E,0.0,W84*6F}*4F
{0B16364E $GPRMC,204532.00,V,,,,,,,301124,,,N*7A}*25
{0B177B90 $GPGGA,204532.00,,,,,0,00,99.99,,,,,,*64}*46
{0B18D13D $PUBX,04,204532.00,301124,593132.00,2342,16D,1765294,0.000,21*6C}*48
{MODE WaitingForGPS}*71
{0B2E79B2 $GPDTM,W84,,0.0,N,0.0,E,0.0,W84*6F}*4C
{0B2F9E84 $GPRMC,204533.00,V,,,,,,,301124,,,N*7B}*50
{0B30E3C6 $GPGGA,204533.00,,,,,0,00,99.99,,,,,,*65}*3C
{0B32397E $PUBX,04,204533.00,301124,593133.00,2342,16D,1817507,0.000,21*6B}*3C
{MODE WaitingForGPS}*71
{0B4D0103 $GPDTM,W84,,0.0,N,0.0,E,0.0,W84*6F}*37
{0B4E25DD $GPRMC,204534.00,V,,,,,,,301124,,,N*7C}*24
{0B4F6B41 $GPGGA,204534.00,,,,,0,00,99.99,,,,,,*62}*3F
{0B50C0D8 $PUBX,04,204534.00,301124,593134.00,2342,16D,1816501,0.000,21*6C}*49
{MODE WaitingForGPS}*71
{0B6B7434 $GPDTM,W84,,0.0,N,0.0,E,0.0,W84*6F}*35
{0B6C991B $GPRMC,204535.00,V,,,,,,,301124,,,N*7D}*52
{0B6DDE54 $GPGGA,204535.00,,,,,0,00,99.99,,,,,,*63}*4E
{0B6F3414 $PUBX,04,204535.00,301124,593135.00,2342,16D,1760193,0.000,21*6D}*37
{MODE WaitingForGPS}*71
{0B8A0725 $GPDTM,W84,,0.0,N,0.0,E,0.0,W84*6F}*3C
{0B8B2C00 $GPRMC,204536.00,V,,,,,,,301124,,,N*7E}*5D
{0B8C7163 $GPGGA,204536.00,,,,,0,00,99.99,,,,,,*60}*44
{0B8DC6FA $PUBX,04,204536.00,301124,593136.00,2342,16D,1814990,0.000,21*6A}*49
{MODE WaitingForGPS}*71
{0BA88DCA $GPDTM,W84,,0.0,N,0.0,E,0.0,W84*6F}*42
{0BA9B29C $GPRMC,204537.00,V,,,,,,,301124,,,N*7F}*26
{0BAAF7FF $GPGGA,204537.00,,,,,0,00,99.99,,,,,,*61}*4D
{0BAC4D95 $PUBX,04,204537.00,301124,593137.00,2342,16D,1814990,0.000,21*6A}*39
{MODE WaitingForGPS}*71
{0BCC254D $GPDTM,W84,,0.0,N,0.0,E,0.0,W84*6F}*32
{0BCD4A1F $GPRMC,204538.00,V,,,,,,,301124,,,N*70}*28
{0BCE8F81 $GPGGA,204538.00,,,,,0,00,99.99,,,,,,*6E}*36
{0BCFE50D $PUBX,04,204538.00,301124,593138.00,2342,16D,1814990,0.000,21*6A}*46
{MODE WaitingForGPS}*71
{0BE59510 $GPDTM,W84,,0.0,N,0.0,E,0.0,W84*6F}*38
{0BE6B9E1 $GPRMC,204539.00,V,,,,,,,301124,,,N*71}*51
{0BE7FF2F $GPGGA,204539.00,,,,,0,00,99.99,,,,,,*6F}*43
{0BE954DB $PUBX,04,204539.00,301124,593139.00,2342,16D,1814990,0.000,21*6A}*3C
{MODE WaitingForGPS}*71
{0C041B32 $GPDTM,W84,,0.0,N,0.0,E,0.0,W84*6F}*32
{0C054003 $GPRMC,204540.00,V,,,,,,,301124,,,N*7F}*57
{0C068546 $GPGGA,204540.00,,,,,0,00,99.99,,,,,,*61}*34
{0C07DAF2 $PUBX,04,204540.00,301124,593140.00,2342,16D,1814990,0.000,21*6A}*30
{MODE WaitingForGPS}*71
{0C229F3B $GPDTM,W84,,0.0,N,0.0,E,0.0,W84*6F}*4A
{0C23C415 $GPRMC,204541.00,V,,,,,,,301124,,,N*7E}*25
{0C25095A $GPGGA,204541.00,,,,,0,00,99.99,,,,,,*60}*47
{0C265F1B $PUBX,04,204541.00,301124,593141.00,2342,16D,1866284,0.000,21*61}*39
{MODE WaitingForGPS}*71
{0C41156A $GPDTM,W84,,0.0,N,0.0,E,0.0,W84*6F}*32
{0C423A3B $GPRMC,204542.00,V,,,,,,,301124,,,N*7D}*50
{0C437F8A $GPGGA,204542.00,,,,,0,00,99.99,,,,,,*63}*32
{0C44D53F $PUBX,04,204542.00,301124,593142.00,2342,16D,1866284,0.000,21*61}*39
{MODE WaitingForGPS}*71
{0C5FB49E $GPDTM,W84,,0.0,N,0.0,E,0.0,W84*6F}*3D
{0C60D984 $GPRMC,204543.00,V,,,,,,,301124,,,N*7C}*24
{0C621EDE $GPGGA,204543.00,,,,,0,00,99.99,,,,,,*62}*4C
{0C637469 $PUBX,04,204543.00,301124,593143.00,2342,16D,1866284,0.000,21*61}*34
{MODE WaitingForGPS}*71
{0C8343D7 $GPDTM,W84,,0.0,N,0.0,E,0.0,W84*6F}*3B
{0C8468BD $GPRMC,204544.00,V,,,,,,,301124,,,N*7B}*51
{0C85AE36 $GPGGA,204544.00,,,,,0,00,99.99,,,,,,*65}*31
{0C8703A2 $PUBX,04,204544.00,301124,593144.00,2342,16D,1866284,0.000,21*61}*42
{MODE WaitingForGPS}*71
{0C9CB35D $GPDTM,W84,,0.0,N,0.0,E,0.0,W84*6F}*3E
{0C9DD82E $GPRMC,204545.00,V,,,,,,,301124,,,N*7A}*21
{0C9F1D7C $GPGGA,204545.00,,,,,0,00,99.99,,,,,,*64}*43
{0CA07328 $PUBX,04,204545.00,301124,593145.00,2342,16D,1866284,0.000,21*61}*42
{MODE WaitingForGPS}*71
{0CBB42A5 $GPDTM,W84,,0.0,N,0.0,E,0.0,W84*6F}*36
{0CBC6776 $GPRMC,204546.00,V,,,,,,,301124,,,N*79}*2D
{0CBDACE1 $GPGGA,204546.00,,,,,0,00,99.99,,,,,,*67}*4D
{0CBF025A $PUBX,04,204546.00,301124,593146.00,2342,16D,1866284,0.000,21*61}*4F
{MODE WaitingForGPS}*71
{0CD9BE57 $GPDTM,W84,,0.0,N,0.0,E,0.0,W84*6F}*3C
{0CDAE332 $GPRMC,204547.00,V,,,,,,,301124,,,N*78}*5E
{0CDC2875 $GPGGA,204547.00,,,,,0,00,99.99,,,,,,*66}*32
{0CDD7E36 $PUBX,04,204547.00,301124,593147.00,2342,16D,1866284,0.000,21*61}*4A
{MODE WaitingForGPS}*71
{0CF8412B $GPDTM,W84,,0.0,N,0.0,E,0.0,W84*6F}*4F
{0CF96605 $GPRMC,204548.00,V,,,,,,,301124,,,N*77}*56
{0CFAAB3D $GPGGA,204548.00,,,,,0,00,99.99,,,,,,*69}*4E
{0CFC00E0 $PUBX,04,204548.00,301124,593148.00,2342,16D,1903352,0.000,21*69}*4D
{MODE WaitingForGPS}*71
{0D16C7B1 $GPDTM,W84,,0.0,N,0.0,E,0.0,W84*6F}*43
{0D17EC8B $GPRMC,204549.00,V,,,,,,,301124,,,N*76}*51
{0D1931BA $GPGGA,204549.00,,,,,0,00,99.99,,,,,,*68}*33
{0D1A877B $PUBX,04,204549.00,301124,593149.00,2342,16D,1857810,0.000,21*64}*30
{MODE WaitingForGPS}*71
{0D3A6B8C $GPDTM,W84,,0.0,N,0.0,E,0.0,W84*6F}*3E
{0D3B905E $GPRMC,204550.00,V,,,,,,,301124,,,N*7E}*58
{0D3CD5CA $GPGGA,204550.00,,,,,0,00,99.99,,,,,,*60}*39
{0D3E2B57 $PUBX,04,204550.00,301124,593150.00,2342,16D,1857810,0.000,21*64}*3E
{MODE WaitingForGPS}*71
{0D53C899 $GPDTM,W84,,0.0,N,0.0,E,0.0,W84*6F}*3E
{0D54ED73 $GPRMC,204551.00,V,,,,,,,301124,,,N*7F}*56
{0D5632B8 $GPGGA,204551.00,,,,,0,00,99.99,,,,,,*61}*42
{0D578879 $PUBX,04,204551.00,301124,593151.00,2342,16D,1857810,0.000,21*64}*36
{MODE WaitingForGPS}*71
{0D7256D9 $GPDTM,W84,,0.0,N,0.0,E,0.0,W84*6F}*38
{0D737BB4 $GPRMC,204552.00,V,,,,,,,301124,,,N*7C}*53
{0D74C117 $GPGGA,204552.00,,,,,0,00,99.99,,,,,,*62}*4D
{0D7616A5 $PUBX,04,204552.00,301124,593152.00,2342,16D,1798308,0.000,21*6A}*33
{MODE WaitingForGPS}*71
{0D90CDBC $GPDTM,W84,,0.0,N,0.0,E,0.0,W84*6F}*4C
{0D91F28D $GPRMC,204553.00,V,,,,,,,301124,,,N*7D}*52
{0D9337FC $GPGGA,204553.00,,,,,0,00,99.99,,,,,,*63}*31
{0D948D87 $PUBX,04,204553.00,301124,593153.00,2342,16D,1798308,0.000,21*6A}*3F
{MODE WaitingForGPS}*71
{0DAF5C7B $GPDTM,W84,,0.0,N,0.0,E,0.0,W84*6F}*47
{0DB0814D $GPRMC,204554.00,V,,,,,,,301124,,,N*7A}*5B
{0DB1C6B0 $GPGGA,204554.00,,,,,0,00,99.99,,,,,,*64}*4E
{0DB31C46 $PUBX,04,204554.00,301124,593154.00,2342,16D,1852811,0.000,21*60}*3B
{MODE WaitingForGPS}*71
{0DCDE2E5 $GPDTM,W84,,0.0,N,0.0,E,0.0,W84*6F}*43
{0DCF07B1 $GPRMC,204555.00,V,,,,,,,301124,,,N*7B}*23
{0DD04D2E $GPGGA,204555.00,,,,,0,00,99.99,,,,,,*65}*49
{0DD1A2C5 $PUBX,04,204555.00,301124,593155.00,2342,16D,1852811,0.000,21*60}*4A
{MODE WaitingForGPS}*71
{0DF13F36 $GPDTM,W84,,0.0,N,0.0,E,0.0,W84*6F}*44
{0DF26410 $GPRMC,204556.00,V,,,,,,,301124,,,N*78}*5C
{0DF3A949 $GPGGA,204556.00,,,,,0,00,99.99,,,,,,*66}*3A
{0DF4FEF5 $PUBX,04,204556.00,301124,593156.00,2342,16D,1852811,0.000,21*60}*38
{MODE WaitingForGPS}*71
{0E0AEC61 $GPDTM,W84,,0.0,N,0.0,E,0.0,W84*6F}*32
{0E0C113E $GPRMC,204557.00,V,,,,,,,301124,,,N*79}*2F
{0E0D568B $GPGGA,204557.00,,,,,0,00,99.99,,,,,,*67}*36
{0E0EAC40 $PUBX,04,204557.00,301124,593157.00,2342,16D,1907801,0.000,21*60}*48
{MODE WaitingForGPS}*71
{0E297296 $GPDTM,W84,,0.0,N,0.0,E,0.0,W84*6F}*43
{0E2A977C $GPRMC,204558.00,V,,,,,,,301124,,,N*76}*23
{0E2BDCE7 $GPGGA,204558.00,,,,,0,00,99.99,,,,,,*68}*3E
{0E2D3275 $PUBX,04,204558.00,301124,593158.00,2342,16D,1801208,0.000,21*64}*4E
{MODE WaitingForGPS}*71
{0E47F541 $GPDTM,W84,,0.0,N,0.0,E,0.0,W84*6F}*37
{0E491A1E $GPRMC,204559.00,V,,,,,,,301124,,,N*77}*23
{0E4A5F6C $GPGGA,204559.00,,,,,0,00,99.99,,,,,,*69}*48
{0E4BB520 $PUBX,04,204559.00,301124,593159.00,2342,16D,1859236,0.000,21*64}*38
{MODE WaitingForGPS}*71
{0E667B00 $GPDTM,W84,,0.0,N,0.0,E,0.0,W84*6F}*37
{0E679FE6 $GPRMC,204600.00,V,,,,,,,301124,,,N*78}*27
{0E68E528 $GPGGA,204600.00,,,,,0,00,99.99,,,,,,*66}*4F
{0E6A3ACA $PUBX,04,204600.00,301124,593160.00,2342,16D,1859236,0.000,21*61}*3C
{MODE WaitingForGPS}*71
{0E851591 $GPDTM,W84,,0.0,N,0.0,E,0.0,W84*6F}*43
{0E863A62 $GPRMC,204601.00,V,,,,,,,301124,,,N*79}*52
{0E877F9B $GPGGA,204601.00,,,,,0,00,99.99,,,,,,*67}*3E
{0E88D550 $PUBX,04,204601.00,301124,593161.00,2342,16D,1961781,0.000,21*62}*4F
{MODE WaitingForGPS}*71
{0EA888A7 $GPDTM,W84,,0.0,N,0.0,E,0.0,W84*6F}*4D
{0EA9AD81 $GPRMC,204602.00,V,,,,,,,301124,,,N*7A}*25
{0EAAF2E5 $GPGGA,204602.00,,,,,0,03,2.77,,,,,,*55}*0C
{0EAC4043 $PUBX,04,204602.00,301124,593161.99,2342,16D,2518123,-739.882,21*4C}*67
{MODE WaitingForGPS}*71
{0EC274F1 $GPDTM,W84,,0.0,N,0.0,E,0.0,W84*6F}*47
{0EC399C2 $GPRMC,204603.00,V,,,,,,,301124,,,N*7B}*52
{0EC4DF11 $GPGGA,204603.00,,,,,0,03,2.77,,,,,,*54}*7D
{0EC62CA1 $PUBX,04,204603.00,301124,593163.00,2342,16D,517364,-739.916,21*7F}*27
{MODE WaitingForGPS}*71
{0EE102D9 $GPDTM,W84,,0.0,N,0.0,E,0.0,W84*6F}*49
{0EE227BF $GPRMC,204604.00,V,,,,,,,301124,,,N*7C}*23
{0EE36D01 $GPGGA,204604.00,,,,,0,03,2.77,,,,,,*53}*0D
{0EE4BA7D $PUBX,04,204604.00,301124,593164.00,2342,16D,516624,-740.324,21*7A}*50
{MODE WaitingForGPS}*71
{0EFF8841 $GPDTM,W84,,0.0,N,0.0,E,0.0,W84*6F}*47
{0F00AD30 $GPRMC,204605.00,A,4526.06374,N,12242.45708,W,0.068,,301124,,,A*66}*3E
{0F02D730 $GPGGA,204605.00,4526.06374,N,12242.45708,W,1,03,2.77,64.0,M,-21.2,M,,*5E}*02
{0F053B84 $PUBX,04,204605.00,301124,593165.00,2342,16D,515884,-740.854,21*71}*51
{MODE WaitingForGPS}*71
{0F1CE817 P}*09
{0F1E0F95 $GPDTM,W84,,0.0,N,0.0,E,0.0,W84*6F}*4F
{0F1F3485 $GPRMC,204606.00,A,4526.06349,N,12242.45663,W,0.023,,301124,,,A*68}*45
{0F215E99 $GPGGA,204606.00,4526.06349,N,12242.45663,W,1,03,2.77,63.9,M,-21.2,M,,*51}*78
{0F23C2E0 $PUBX,04,204606.00,301124,593166.00,2342,16D,515143,-741.237,21*7D}*55
{MODE Sync}*02
{0F3B6CD9 P}*79
{0F3C984E $GPDTM,W84,,0.0,N,0.0,E,0.0,W84*6F}*41
{0F3DBD28 $GPRMC,204607.00,A,4526.06362,N,12242.45669,W,0.017,,301124,,,A*6D}*3A
{0F3FE752 $GPGGA,204607.00,4526.06362,N,12242.45669,W,1,03,2.77,63.6,M,-21.2,M,,*5C}*74
{0F424B92 $PUBX,04,204607.00,301124,593167.00,2342,16D,514402,-741.351,21*7D}*2B
{MODE Sync}*02
{0F59F19A P}*03
{0F5B2004 $GPDTM,W84,,0.0,N,0.0,E,0.0,W84*6F}*30
{0F5C44DE $GPRMC,204608.00,A,4526.06366,N,12242.45669,W,0.182,,301124,,,A*6B}*36
{0F5E6F09 $GPGGA,204608.00,4526.06366,N,12242.45669,W,1,03,2.77,63.8,M,-21.2,M,,*59}*02
{0F60D33B $PUBX,04,204608.00,301124,593168.00,2342,16D,513660,-741.805,21*76}*29
{MODE Sync}*02
{0F78765A P}*7A
{0F799A89 $GPDTM,W84,,0.0,N,0.0,E,0.0,W84*6F}*36
{0F7ABF6F $GPRMC,204609.00,A,4526.06375,N,12242.45673,W,0.077,,301124,,,A*68}*3A
{0F7CE98C $GPGGA,204609.00,4526.06375,N,12242.45673,W,1,03,2.77,63.5,M,-21.2,M,,*5C}*07
{0F7F4DCA $PUBX,04,204609.00,301124,593169.00,2342,16D,512918,-742.461,21*7A}*51
{MODE Sync}*02
{0F96FB19 P}*03
{0F982F03 $GPDTM,W84,,0.0,N,0.0,E,0.0,W84*6F}*37
{0F9953DD $GPRMC,204610.00,A,4526.06379,N,12242.45677,W,0.073,,301124,,,A*6C}*41
{0F9B7DD3 $GPGGA,204610.00,4526.06379,N,12242.45677,W,1,03,2.77,63.6,M,-21.2,M,,*5F}*0D
{0F9DE23C $PUBX,04,204610.00,301124,593170.00,2342,16D,512176,-743.072,21*7D}*2A
{MODE TimeValid PPS}*35
{0FB57FD8 P}*7A
{0FB6A197 $GPDTM,W84,,0.0,N,0.0,E,0.0,W84*6F}*4B
{0FB7C67E $GPRMC,204611.00,A,4526.06372,N,12242.45666,W,0.061,,301124,,,A*65}*4A
{0FB9F09A $GPGGA,204611.00,4526.06372,N,12242.45666,W,1,03,2.77,64.1,M,-21.2,M,,*55}*7E
{0FBC54D8 $PUBX,04,204611.00,301124,593171.00,2342,16D,511433,-743.384,21*70}*55
{MODE TimeValid PPS}*35
{0FD40498 P}*75
{0FD54EF6 $GPDTM,W84,,0.0,N,0.0,E,0.0,W84*6F}*31
{0FD673D0 $GPRMC,204612.00,A,4526.06375,N,12242.45664,W,0.135,,301124,,,A*63}*3A
{0FD89DED $GPGGA,204612.00,4526.06375,N,12242.45664,W,1,03,2.78,63.8,M,-21.2,M,,*52}*0B
{0FDB0241 $PUBX,04,204612.00,301124,593172.00,2342,16D,510689,-743.484,21*75}*28
{MODE TimeValid PPS}*35
{0FF28957 P}*77
{0FF3B87E $GPDTM,W84,,0.0,N,0.0,E,0.0,W84*6F}*3C
{0FF4DD6D $GPRMC,204613.00,A,4526.06375,N,12242.45663,W,0.110,,301124,,,A*62}*38
{0FF7078D $GPGGA,204613.00,4526.06375,N,12242.45663,W,1,03,2.78,63.9,M,-21.2,M,,*55}*01
{0FF96BD4 $PUBX,04,204613.00,301124,593173.00,2342,16D,509946,-743.583,21*77}*52
{MODE TimeValid PPS}*35
{10110E17 P}*04
{10124D95 $GPDTM,W84,,0.0,N,0.0,E,0.0,W84*6F}*49
{1013727C $GPRMC,204614.00,A,4526.06384,N,12242.45670,W,0.081,,301124,,,A*60}*3C
{10159C85 $GPGGA,204614.00,4526.06384,N,12242.45670,W,1,03,2.78,63.8,M,-21.2,M,,*5F}*76
{101800EE $PUBX,04,204614.00,301124,593174.00,2342,16D,509202,-743.908,21*73}*57
{MODE TimeValid PPS}*35
{102F92D5 P}*79
{1030D5D5 $GPDTM,W84,,0.0,N,0.0,E,0.0,W84*6F}*35
{1031FAA7 $GPRMC,204615.00,A,4526.06382,N,12242.45665,W,0.059,,301124,,,A*66}*3C
{103424BA $GPGGA,204615.00,4526.06382,N,12242.45665,W,1,03,2.78,64.0,M,-21.2,M,,*53}*7E
{10368922 $PUBX,04,204615.00,301124,593175.00,2342,16D,508458,-744.744,21*7A}*21
{MODE TimeValid PPS}*35
{104E1794 P}*0D
{104F5320 $GPDTM,W84,,0.0,N,0.0,E,0.0,W84*6F}*40
{105077F2 $GPRMC,204616.00,A,4526.06378,N,12242.45657,W,0.085,,301124,,,A*60}*3E
{1052A20E $GPGGA,204616.00,4526.06378,N,12242.45657,W,1,03,2.78,63.6,M,-21.2,M,,*55}*7D
{10550664 $PUBX,04,204616.00,301124,593176.00,2342,16D,507713,-745.130,21*7D}*23
{MODE TimeValid PPS}*35
{106C9C52 P}*7F
{106DC7F9 $GPDTM,W84,,0.0,N,0.0,E,0.0,W84*6F}*4F
{106EECD3 $GPRMC,204617.00,A,4526.06374,N,12242.45654,W,0.181,,301124,,,A*6B}*34
{107116F4 $GPGGA,204617.00,4526.06374,N,12242.45654,W,1,03,2.78,63.7,M,-21.2,M,,*5A}*74
{10737B27 $PUBX,04,204617.00,301124,593177.00,2342,16D,506968,-745.306,21*79}*2A
{MODE TimeValid PPS}*35
{108B2111 P}*0E
{108C6178 $GPDTM,W84,,0.0,N,0.0,E,0.0,W84*6F}*45
{108D865E $GPRMC,204618.00,A,4526.06384,N,12242.45662,W,0.259,,301124,,,A*68}*4D
{108FB051 $GPGGA,204618.00,4526.06384,N,12242.45662,W,1,03,2.78,63.0,M,-21.2,M,,*58}*74
{109214B8 $PUBX,04,204618.00,301124,593178.00,2342,16D,506223,-745.238,21*71}*2A
{MODE TimeValid PPS}*35
{10A9A5D2 P}*0D
{10AAC9C8 $GPDTM,W84,,0.0,N,0.0,E,0.0,W84*6F}*37
{10ABEEAE $GPRMC,204619.00,A,4526.06392,N,12242.45671,W,0.209,,301124,,,A*69}*48
{10AE18C2 $GPGGA,204619.00,4526.06392,N,12242.45671,W,1,03,2.78,63.3,M,-21.2,M,,*5F}*79
{10B07D09 $PUBX,04,204619.00,301124,593179.00,2342,16D,505478,-744.824,21*7C}*29
{MODE TimeValid PPS}*35
{10C82A91 P}*77
{10C96560 $GPDTM,W84,,0.0,N,0.0,E,0.0,W84*6F}*49
{10CA8A32 $GPRMC,204620.00,A,4526.06395,N,12242.45684,W,0.102,,301124,,,A*66}*35
{10CCB439 $GPGGA,204620.00,4526.06395,N,12242.45684,W,1,03,2.78,64.1,M,-21.2,M,,*5D}*79
{10CF18AE $PUBX,04,204620.00,301124,593180.00,2342,16D,504732,-746.246,21*70}*56
{MODE TimeValid PPS}*35
{10E6AF50 P}*06
{10E7D527 $GPDTM,W84,,0.0,N,0.0,E,0.0,W84*6F}*30
{10E8F9F9 $GPRMC,204621.00,A,4526.06396,N,12242.45687,W,0.081,,301124,,,A*6D}*4B
{10EB2423 $GPGGA,204621.00,4526.06396,N,12242.45687,W,1,03,2.78,64.1,M,-21.2,M,,*5C}*03
{10ED8877 $PUBX,04,204621.00,301124,593181.00,2342,16D,503986,-746.826,21*7A}*24
{MODE TimeValid PPS}*35
{11053411 P}*74
{11065F59 $GPDTM,W84,,0.0,N,0.0,E,0.0,W84*6F}*4E
{11078434 $GPRMC,204622.00,A,4526.06401,N,12242.45692,W,0.097,,301124,,,A*64}*42
{1109AE48 $GPGGA,204622.00,4526.06401,N,12242.45692,W,1,03,2.78,63.6,M,-21.2,M,,*52}*7C
{110C129B $PUBX,04,204622.00,301124,593182.00,2342,16D,503240,-745.834,21*7B}*2D
{MODE TimeValid PPS}*35
{1123B8D2 P}*7B
{1124DF4E $GPDTM,W84,,0.0,N,0.0,E,0.0,W84*6F}*42
{11260449 $GPRMC,204623.00,A,4526.06405,N,12242.45695,W,0.076,,301124,,,A*69}*43
{11282E5E $GPGGA,204623.00,4526.06405,N,12242.45695,W,1,03,2.78,63.7,M,-21.2,M,,*51}*70
{112A92BB $PUBX,04,204623.00,301124,593183.00,2342,16D,502494,-745.679,21*72}*27
{MODE TimeValid PPS}*35
{11423D90 P}*0E
{11437921 $GPDTM,W84,,0.0,N,0.0,E,0.0,W84*6F}*3D
{11449E10 $GPRMC,204624.00,A,4526.06406,N,12242.45704,W,0.086,,301124,,,A*6B}*4A
{1146C826 $GPGGA,204624.00,4526.06406,N,12242.45704,W,1,03,2.78,63.9,M,-21.2,M,,*52}*00
{11492C78 $PUBX,04,204624.00,301124,593184.00,2342,16D,501748,-746.931,21*73}*2C
{MODE TimeValid PPS}*35
{1160C24E P}*70
{11620215 $GPDTM,W84,,0.0,N,0.0,E,0.0,W84*6F}*35
{116326FC $GPRMC,204625.00,A,4526.06404,N,12242.45713,W,0.049,,301124,,,A*6D}*33
{11655119 $GPGGA,204625.00,4526.06404,N,12242.45713,W,1,03,2.78,63.8,M,-21.2,M,,*56}*72
{1167B560 $PUBX,04,204625.00,301124,593185.00,2342,16D,501000,-747.334,21*76}*2F
{MODE TimeValid PPS}*35
{117F470E P}*71
{11808033 $GPDTM,W84,,0.0,N,0.0,E,0.0,W84*6F}*37
{1181A50D $GPRMC,204626.00,A,4526.06406,N,12242.45723,W,0.151,,301124,,,A*67}*47
{1183CF22 $GPGGA,204626.00,4526.06406,N,12242.45723,W,1,03,2.78,63.9,M,-21.2,M,,*55}*73
{11863374 $PUBX,04,204626.00,301124,593186.00,2342,16D,500253,-746.925,21*78}*52
{MODE TimeValid PPS}*35
{119DCBCE P}*0C
{119EE9DC $GPDTM,W84,,0.0,N,0.0,E,0.0,W84*6F}*30
{11A00ECE $GPRMC,204627.00,A,4526.06406,N,12242.45734,W,0.131,,301124,,,A*66}*4C
{11A238D5 $GPGGA,204627.00,4526.06406,N,12242.45734,W,1,03,2.78,64.1,M,-21.2,M,,*5D}*0D
{11A49D1D $PUBX,04,204627.00,301124,593187.00,2342,16D,499507,-746.568,21*7A}*59
{MODE TimeValid PPS}*35
{11BC508D P}*0E
{11BD71D6 $GPDTM,W84,,0.0,N,0.0,E,0.0,W84*6F}*45
{11BE96A7 $GPRMC,204628.00,A,4526.06409,N,12242.45744,W,0.096,,301124,,,A*6D}*49
{11C0C0C5 $GPGGA,204628.00,4526.06409,N,12242.45744,W,1,03,2.78,64.5,M,-21.2,M,,*5E}*70
{11C32518 $PUBX,04,204628.00,301124,593187.99,2342,16D,498761,-746.761,21*7D}*58
{MODE TimeValid PPS}*35
{11DAD54B P}*74
{11DBF3FA $GPDTM,W84,,0.0,N,0.0,E,0.0,W84*6F}*43
{11DD18D7 $GPRMC,204629.00,A,4526.06411,N,12242.45760,W,0.163,,301124,,,A*68}*34
{11DF42DF $GPGGA,204629.00,4526.06411,N,12242.45760,W,1,03,2.78,65.0,M,-21.2,M,,*54}*7B
{11E1A747 $PUBX,04,204629.00,301124,593188.99,2342,16D,498013,-747.801,21*79}*5E
{MODE TimeValid PPS}*35
{11F95A09 P}*74
{11FA76E4 $GPDTM,W84,,0.0,N,0.0,E,0.0,W84*6F}*40
{11FB9BBE $GPRMC,204630.00,A,4526.06409,N,12242.45772,W,0.166,,301124,,,A*6F}*4F
{11FDC5DC $GPGGA,204630.00,4526.06409,N,12242.45772,W,1,03,2.78,64.9,M,-21.2,M,,*5E}*75
{12002A27 $PUBX,04,204630.00,301124,593189.99,2342,16D,497265,-747.960,21*7A}*51
{MODE TimeValid PPS}*35
{1217DEC9 P}*08
{1218F6C5 $GPDTM,W84,,0.0,N,0.0,E,0.0,W84*6F}*3B
{121A1BAB $GPRMC,204631.00,A,4526.06406,N,12242.45787,W,0.127,,301124,,,A*6E}*36
{121C45C9 $GPGGA,204631.00,4526.06406,N,12242.45787,W,1,03,2.78,66.0,M,-21.2,M,,*51}*77
{121EAA07 $PUBX,04,204631.00,301124,593190.99,2342,16D,496517,-746.947,21*74}*2F
{MODE TimeValid PPS}*35
{12366389 P}*74
{1237834A $GPDTM,W84,,0.0,N,0.0,E,0.0,W84*6F}*4E
{1238A81B $GPRMC,204632.00,A,4526.06407,N,12242.45819,W,0.116,,301124,,,A*66}*4C
{123AD223 $GPGGA,204632.00,4526.06407,N,12242.45819,W,1,03,2.78,69.3,M,-21.2,M,,*57}*7B
{123D3696 $PUBX,04,204632.00,301124,593191.99,2342,16D,495770,-746.963,21*70}*21
{MODE TimeValid PPS}*35
{1254E846 P}*0B
{1257159C $GPDTM,W84,,0.0,N,0.0,E,0.0,W84*6F}*48
{12583A82 $GPRMC,204633.00,V,,,,,,,301124,,,N*78}*29
{12597FF6 $GPGGA,204633.00,,,,,0,04,5.14,,,,,,*52}*73
{125ACD55 $PUBX,04,204633.00,301124,593192.99,2342,16D,495221,-743.905,21*76}*2F
{MODE TimeValid PPS}*35
{12736D03 P}*00
{1274B11E $GPDTM,W84,,0.0,N,0.0,E,0.0,W84*6F}*30
{1275D60D $GPRMC,204634.00,V,,,,,,,301124,,,N*7F}*21
{12771B52 $GPGGA,204634.00,,,,,0,04,5.14,,,,,,*55}*0A
{127868CF $PUBX,04,204634.00,301124,593193.99,2342,16D,494469,-748.361,21*78}*58
{MODE TimeValid PPS}*35
{1291F1C2 P}*7B
{12932903 $GPDTM,W84,,0.0,N,0.0,E,0.0,W84*6F}*36
{12944DF3 $GPRMC,204635.00,V,,,,,,,301124,,,N*7E}*2F
{1295932C $GPGGA,204635.00,,,,,0,04,5.13,,,,,,*53}*09
{1296E0A9 $PUBX,04,204635.00,301124,593194.99,2342,16D,493718,-747.792,21*7B}*27
{MODE TimeValid PPS}*35
{12B07681 P}*0F
{12B1C0C4 $GPDTM,W84,,0.0,N,0.0,E,0.0,W84*6F}*43
{12B2E59E $GPRMC,204636.00,V,,,,,,,301124,,,N*7D}*59
{12B42AE3 $GPGGA,204636.00,,,,,0,04,5.13,,,,,,*50}*0D
{12B5785F $PUBX,04,204636.00,301124,593195.99,2342,16D,492973,-746.569,21*7C}*28
{MODE TimeValid PPS}*35
{12CEFB3D P}*00
{12D0344D $GPDTM,W84,,0.0,N,0.0,E,0.0,W84*6F}*37
{12D1591F $GPRMC,204637.00,V,,,,,,,301124,,,N*7C}*2D
{12D29E59 $GPGGA,204637.00,,,,,0,04,5.12,,,,,,*50}*78
{12D3EBF3 $PUBX,04,204637.00,301124,593196.99,2342,16D,492226,-747.337,21*79}*59
{MODE TimeValid PPS}*35
{12ED7FF9 P}*7A
{12EED2D3 $GPDTM,W84,,0.0,N,0.0,E,0.0,W84*6F}*35
{12EFF7CF $GPRMC,204638.00,V,,,,,,,301124,,,N*73}*2B
{12F13D1A $GPGGA,204638.00,,,,,0,04,5.12,,,,,,*5F}*77
{12F28A83 $PUBX,04,204638.00,301124,593197.99,2342,16D,491485,-746.871,21*73}*5A
{MODE TimeValid PPS}*35
{130C04B6 P}*77
{130D3648 $GPDTM,W84,,0.0,N,0.0,E,0.0,W84*6F}*48
{130E5B23 $GPRMC,204639.00,V,,,,,,,301124,,,N*72}*5E
{130FA070 $GPGGA,204639.00,,,,,0,04,5.11,,,,,,*5D}*06
{1310EDF6 $PUBX,04,204639.00,301124,593198.99,2342,16D,490738,-745.839,21*76}*2D
{MODE TimeValid PPS}*35
{132A8970 P}*01
{132BC272 $GPDTM,W84,,0.0,N,0.0,E,0.0,W84*6F}*31
{132CE759 $GPRMC,204640.00,V,,,,,,,301124,,,N*7C}*2D
{132E2CA6 $GPGGA,204640.00,,,,,0,04,5.11,,,,,,*53}*0E
{132F7A23 $PUBX,04,204640.00,301124,593199.99,2342,16D,489990,-747.422,21*79}*5E
{MODE TimeValid PPS}*35
{13490E2B P}*7C
{134A4CBC $GPDTM,W84,,0.0,N,0.0,E,0.0,W84*6F}*36
{134B71A2 $GPRMC,204641.00,A,4526.07183,N,12242.41229,W,1.296,,301124,,,A*6D}*36
{134D9BAB $GPGGA,204641.00,4526.07183,N,12242.41229,W,1,04,5.10,134.4,M,-21.2,M,,*66}*44
{13500891 $PUBX,04,204641.00,301124,593200.99,2342,16D,489248,-747.565,21*77}*58
{MODE TimeValid PPS}*35
{136792E9 P}*02
{1368DD24 $GPDTM,W84,,0.0,N,0.0,E,0.0,W84*6F}*3D
{136A0201 $GPRMC,204642.00,A,4526.07200,N,12242.41232,W,0.893,,301124,,,A*62}*38
{136C2C09 $GPGGA,204642.00,4526.07200,N,12242.41232,W,1,04,5.10,135.4,M,-21.2,M,,*66}*41
{136E98E4 $PUBX,04,204642.00,301124,593201.99,2342,16D,488500,-747.049,21*74}*5E
{MODE TimeValid PPS}*35
{138617A7 P}*0A
{138746EC $GPDTM,W84,,0.0,N,0.0,E,0.0,W84*6F}*3E
{13886BC7 $GPRMC,204643.00,A,4526.07236,N,12242.41175,W,0.785,,301124,,,A*6E}*37
{138A95BB $GPGGA,204643.00,4526.07236,N,12242.41175,W,1,04,5.09,136.9,M,-21.2,M,,*64}*39
{138D0296 $PUBX,04,204643.00,301124,593202.99,2342,16D,487755,-747.403,21*71}*2C
{MODE TimeValid PPS}*35
{13A49C62 P}*7F
{13A5CB63 $GPDTM,W84,,0.0,N,0.0,E,0.0,W84*6F}*45
{13A6F035 $GPRMC,204644.00,A,4526.07238,N,12242.41181,W,0.501,,301124,,,A*62}*4B
{13A91A5E $GPGGA,204644.00,4526.07238,N,12242.41181,W,1,04,5.09,137.3,M,-21.2,M,,*6D}*4D
{13AB8724 $PUBX,04,204644.00,301124,593203.99,2342,16D,487005,-749.374,21*7C}*28
{MODE TimeValid PPS}*35
{13C3211D P}*72
{13C45FCC $GPDTM,W84,,0.0,N,0.0,E,0.0,W84*6F}*31
{13C584BA $GPRMC,204645.00,A,4526.07270,N,12242.41128,W,0.574,,301124,,,A*6E}*4E
{13C7AED0 $GPGGA,204645.00,4526.07270,N,12242.41128,W,1,04,5.09,138.7,M,-21.2,M,,*68}*48
{13CA1B95 $PUBX,04,204645.00,301124,593204.99,2342,16D,486258,-749.709,21*7F}*59
{MODE TimeValid PPS}*35
{13E1A5DA P}*71
{13E2E6BA $GPDTM,W84,,0.0,N,0.0,E,0.0,W84*6F}*32
{13E40B9F $GPRMC,204646.00,A,4526.07340,N,12242.40988,W,0.964,,301124,,,A*61}*30
{13E635BD $GPGGA,204646.00,4526.07340,N,12242.40988,W,1,04,5.08,141.3,M,-21.2,M,,*61}*3F
{13E8A283 $PUBX,04,204646.00,301124,593205.99,2342,16D,485517,-748.258,21*72}*58
{MODE TimeValid PPS}*35
{14002A98 P}*01
{14015E96 $GPDTM,W84,,0.0,N,0.0,E,0.0,W84*6F}*4C
{1402835B $GPRMC,204647.00,A,4526.07388,N,12242.40879,W,0.972,,301124,,,A*6C}*4A
{1404AD7A $GPGGA,204647.00,4526.07388,N,12242.40879,W,1,04,5.08,143.2,M,-21.2,M,,*68}*3C
{14071A60 $PUBX,04,204647.00,301124,593206.99,2342,16D,484773,-747.650,21*72}*2B
{MODE TimeValid PPS}*35
{141EAF54 P}*01
{141FF04F $GPDTM,W84,,0.0,N,0.0,E,0.0,W84*6F}*41
{14211534 $GPRMC,204648.00,A,4526.07422,N,12242.40808,W,1.124,,301124,,,A*68}*4B
{14233F48 $GPGGA,204648.00,4526.07422,N,12242.40808,W,1,04,5.07,144.5,M,-21.2,M,,*69}*33
{1425AC17 $PUBX,04,204648.00,301124,593207.99,2342,16D,484028,-747.944,21*7F}*20
{MODE TimeValid PPS}*35
{143D340F P}*75
{143E652A $GPDTM,W84,,0.0,N,0.0,E,0.0,W84*6F}*34
{143F8A11 $GPRMC,204649.00,A,4526.07503,N,12242.40638,W,1.520,56.45,301124,,,A*4A}*1E
{1441DE95 $GPGGA,204649.00,4526.07503,N,12242.40638,W,1,04,5.07,147.4,M,-21.2,M,,*65}*43
{144449A1 $PUBX,04,204649.00,301124,593208.99,2342,16D,483287,-748.176,21*77}*27
{MODE TimeValid PPS}*35
{145BB8CA P}*7C
{145D0513 $GPDTM,W84,,0.0,N,0.0,E,0.0,W84*6F}*44
{145E29FA $GPRMC,204650.00,A,4526.07593,N,12242.40450,W,1.718,54.81,301124,,,A*44}*15
{14607E7D $GPGGA,204650.00,4526.07593,N,12242.40450,W,1,04,5.06,150.7,M,-21.2,M,,*6C}*33
{1462E97E $PUBX,04,204650.00,301124,593209.99,2342,16D,482548,-747.752,21*74}*50
{MODE TimeValid PPS}*35
{147A3D88 P}*72
{147B8CD8 $GPDTM,W84,,0.0,N,0.0,E,0.0,W84*6F}*40
{147CB1AA $GPRMC,204651.00,A,4526.08040,N,12242.39449,W,0.596,,301124,,,A*64}*4C
{147EDBC8 $GPGGA,204651.00,4526.08040,N,12242.39449,W,1,05,2.04,167.2,M,-21.2,M,,*6A}*3F
{1481489A $PUBX,04,204651.00,301124,593210.99,2342,16D,481857,-748.798,21*74}*27
{MODE TimeValid PPS}*35
{1498C245 P}*02
{1499F962 $GPDTM,W84,,0.0,N,0.0,E,0.0,W84*6F}*49
{149B1E54 $GPRMC,204652.00,A,4526.08231,N,12242.39014,W,0.387,,301124,,,A*69}*45
{149D485B $GPGGA,204652.00,4526.08231,N,12242.39014,W,1,05,2.04,174.2,M,-21.2,M,,*63}*4D
{149FB515 $PUBX,04,204652.00,301124,593211.99,2342,16D,481132,-749.874,21*70}*56
{MODE TimeValid PPS}*35
{14B74700 P}*05
{14B86BE8 $GPDTM,W84,,0.0,N,0.0,E,0.0,W84*6F}*41
{14B990B9 $GPRMC,204653.00,A,4526.08327,N,12242.38793,W,0.209,,301124,,,A*60}*42
{14BBBAD6 $GPGGA,204653.00,4526.08327,N,12242.38793,W,1,05,2.04,177.8,M,-21.2,M,,*64}*3A
{14BE27A7 $PUBX,04,204653.00,301124,593212.99,2342,16D,480394,-751.391,21*74}*2E
{MODE TimeValid PPS}*35
{14D5CBBA P}*00
{14D70675 $GPDTM,W84,,0.0,N,0.0,E,0.0,W84*6F}*45
{14D82B4F $GPRMC,204654.00,A,4526.08372,N,12242.38682,W,0.162,,301124,,,A*68}*35
{14DA5542 $GPGGA,204654.00,4526.08372,N,12242.38682,W,1,05,2.04,179.5,M,-21.2,M,,*61}*48
{14DCC21D $PUBX,04,204654.00,301124,593213.99,2342,16D,479648,-751.630,21*7E}*22
{MODE TimeValid PPS}*35
{14F45077 P}*04
{14F57C18 $GPDTM,W84,,0.0,N,0.0,E,0.0,W84*6F}*3C
{14F6A0FF $GPRMC,204655.00,A,4526.08404,N,12242.38606,W,0.148,,301124,,,A*6B}*33
{14F8CAF2 $GPGGA,204655.00,4526.08404,N,12242.38606,W,1,05,2.04,180.6,M,-21.2,M,,*6F}*3A
{14FB37D9 $PUBX,04,204655.00,301124,593214.99,2342,16D,478901,-750.683,21*72}*27
{MODE TimeValid PPS}*35
{1512D534 P}*07
{15140650 $GPDTM,W84,,0.0,N,0.0,E,0.0,W84*6F}*35
{15152B2B $GPRMC,204656.00,A,4526.08420,N,12242.38552,W,0.053,,301124,,,A*67}*4E
{15175533 $GPGGA,204656.00,4526.08420,N,12242.38552,W,1,05,2.04,181.4,M,-21.2,M,,*6B}*35
{1519C224 $PUBX,04,204656.00,301124,593215.99,2342,16D,478153,-750.663,21*71}*24
{MODE TimeValid PPS}*35
{153159ED P}*7D
{15327D44 $GPDTM,W84,,0.0,N,0.0,E,0.0,W84*6F}*41
{1533A215 $GPRMC,204657.00,A,4526.08430,N,12242.38512,W,0.232,,301124,,,A*66}*3D
{1535CC32 $GPGGA,204657.00,4526.08430,N,12242.38512,W,1,05,2.04,181.7,M,-21.2,M,,*6C}*32
{15383904 $PUBX,04,204657.00,301124,593216.99,2342,16D,477403,-751.516,21*7C}*21
{MODE TimeValid PPS}*35
{154FDE9F P}*7E
{155110F7 $GPDTM,W84,,0.0,N,0.0,E,0.0,W84*6F}*47
{155235D2 $GPRMC,204658.00,A,4526.08449,N,12242.38457,W,0.121,,301124,,,A*66}*3D
{15545FE6 $GPGGA,204658.00,4526.08449,N,12242.38457,W,1,05,2.04,182.4,M,-21.2,M,,*6D}*32
{1556CCB6 $PUBX,04,204658.00,301124,593217.99,2342,16D,476655,-751.759,21*7B}*55
{MODE TimeValid PPS}*35
{156E635B P}*73
{156F8636 $GPDTM,W84,,0.0,N,0.0,E,0.0,W84*6F}*48
{1570AAFB $GPRMC,204659.00,A,4526.08452,N,12242.38428,W,0.037,,301124,,,A*63}*49
{1572D518 $GPGGA,204659.00,4526.08452,N,12242.38428,W,1,05,2.04,182.6,M,-21.2,M,,*6C}*48
{157541FF $PUBX,04,204659.00,301124,593218.99,2342,16D,475904,-751.491,21*7A}*27
{MODE TimeValid PPS}*35
{158CE817 P}*72
{158E19C8 $GPDTM,W84,,0.0,N,0.0,E,0.0,W84*6F}*3D
{158F3E9A $GPRMC,204700.00,A,4526.08458,N,12242.38396,W,0.034,,301124,,,A*65}*3A
{159168B7 $GPGGA,204700.00,4526.08458,N,12242.38396,W,1,05,2.04,182.9,M,-21.2,M,,*66}*39
{1593D586 $PUBX,04,204700.00,301124,593219.99,2342,16D,475154,-751.224,21*73}*2E
{MODE TimeValid PPS}*35
{15AB6CD1 P}*71
{15ACA134 $GPDTM,W84,,0.0,N,0.0,E,0.0,W84*6F}*46
{15ADC60D $GPRMC,204701.00,A,4526.08459,N,12242.38383,W,0.114,,301124,,,A*62}*4E
{15AFF022 $GPGGA,204701.00,4526.08459,N,12242.38383,W,1,05,2.04,182.9,M,-21.2,M,,*62}*3B
{15B25CE7 $PUBX,04,204701.00,301124,593220.99,2342,16D,474403,-751.418,21*77}*2F
{MODE TimeValid PPS}*35
{15C9F18B P}*05
{15CB2281 $GPDTM,W84,,0.0,N,0.0,E,0.0,W84*6F}*3B
{15CC4768 $GPRMC,204702.00,A,4526.08462,N,12242.38364,W,0.160,,301124,,,A*63}*47
{15CE7185 $GPGGA,204702.00,4526.08462,N,12242.38364,W,1,05,2.04,183.0,M,-21.2,M,,*68}*47
{15D0DE56 $PUBX,04,204702.00,301124,593221.99,2342,16D,473652,-751.876,21*70}*2D
{MODE TimeValid PPS}*35
{15E87644 P}*0E
{15E9A704 $GPDTM,W84,,0.0,N,0.0,E,0.0,W84*6F}*3D
{15EACBDE $GPRMC,204703.00,A,4526.08463,N,12242.38349,W,0.106,,301124,,,A*6C}*31
{15ECF5FE $GPGGA,204703.00,4526.08463,N,12242.38349,W,1,05,2.04,183.0,M,-21.2,M,,*67}*3C
{15EF62BA $PUBX,04,204703.00,301124,593222.99,2342,16D,472900,-752.125,21*77}*5F
{MODE TimeValid PPS}*35
{1606FB00 P}*73
{160837A3 $GPDTM,W84,,0.0,N,0.0,E,0.0,W84*6F}*4E
{16095C7D $GPRMC,204704.00,A,4526.08467,N,12242.38334,W,0.051,,301124,,,A*66}*45
{160B86A6 $GPGGA,204704.00,4526.08467,N,12242.38334,W,1,05,2.04,183.0,M,-21.2,M,,*6E}*39
{160DF361 $PUBX,04,204704.00,301124,593223.99,2342,16D,472149,-751.722,21*76}*5E
{MODE TimeValid PPS}*35
{16257FBB P}*07
{1626B40C $GPDTM,W84,,0.0,N,0.0,E,0.0,W84*6F}*31
{1627D8F3 $GPRMC,204705.00,A,4526.08473,N,12242.38312,W,0.038,,301124,,,A*69}*45
{162A031B $GPGGA,204705.00,4526.08473,N,12242.38312,W,1,05,2.04,183.2,M,-21.2,M,,*6C}*35
{162C6FE2 $PUBX,04,204705.00,301124,593224.99,2342,16D,471398,-751.745,21*7C}*51
{MODE TimeValid PPS}*35
{16440473 P}*71
{164535A3 $GPDTM,W84,,0.0,N,0.0,E,0.0,W84*6F}*45
{16465A75 $GPRMC,204706.00,A,4526.08473,N,12242.38298,W,0.230,,301124,,,A*63}*3D
{16488493 $GPGGA,204706.00,4526.08473,N,12242.38298,W,1,05,2.04,183.2,M,-21.2,M,,*6C}*3C
{164AF16E $PUBX,04,204706.00,301124,593225.99,2342,16D,470646,-752.718,21*72}*29
{MODE TimeValid PPS}*35
{1662892C P}*05
{1663B133 $GPDTM,W84,,0.0,N,0.0,E,0.0,W84*6F}*46
{1664D60D $GPRMC,204707.00,A,4526.08475,N,12242.38276,W,0.158,,301124,,,A*69}*4D
{16670018 $GPGGA,204707.00,4526.08475,N,12242.38276,W,1,05,2.04,183.3,M,-21.2,M,,*6A}*3A
{16696CE7 $PUBX,04,204707.00,301124,593226.99,2342,16D,469893,-752.931,21*7B}*29
{MODE TimeValid PPS}*35
{16810DE6 P}*7F
{168246EB $GPDTM,W84,,0.0,N,0.0,E,0.0,W84*6F}*3F
{16836BC5 $GPRMC,204708.00,A,4526.08475,N,12242.38259,W,0.017,,301124,,,A*61}*40
{168595CD $GPGGA,204708.00,4526.08475,N,12242.38259,W,1,05,2.04,183.2,M,-21.2,M,,*69}*4F
{168802A8 $PUBX,04,204708.00,301124,593227.99,2342,16D,469141,-752.392,21*70}*23
{MODE TimeValid PPS}*35
{169F92A1 P}*75
{16A0C165 $GPDTM,W84,,0.0,N,0.0,E,0.0,W84*6F}*30
{16A1E64C $GPRMC,204709.00,A,4526.08494,N,12242.38220,W,0.052,,301124,,,A*60}*3D
{16A4105F $GPGGA,204709.00,4526.08494,N,12242.38220,W,1,05,2.04,183.8,M,-21.2,M,,*63}*4E
{16A67D18 $PUBX,04,204709.00,301124,593228.99,2342,16D,468391,-752.275,21*78}*55
{MODE TimeValid PPS}*35
{16BE175B P}*07
{16BF4DD3 $GPDTM,W84,,0.0,N,0.0,E,0.0,W84*6F}*33
{16C072A4 $GPRMC,204710.00,A,4526.08504,N,12242.38196,W,0.128,,301124,,,A*62}*4A
{16C29CC1 $GPGGA,204710.00,4526.08504,N,12242.38196,W,1,05,2.04,184.1,M,-21.2,M,,*63}*30
{16C50992 $PUBX,04,204710.00,301124,593229.99,2342,16D,467640,-752.473,21*77}*2C
{MODE TimeValid PPS}*35
{16DC9C14 P}*09
{16DDC25B $GPDTM,W84,,0.0,N,0.0,E,0.0,W84*6F}*36
{16DEE72C $GPRMC,204711.00,A,4526.08519,N,12242.38163,W,0.070,,301124,,,A*69}*4B
{16E1112A $GPGGA,204711.00,4526.08519,N,12242.38163,W,1,05,2.04,184.6,M,-21.2,M,,*63}*4E
{16E37E0E $PUBX,04,204711.00,301124,593230.99,2342,16D,466889,-752.803,21*7F}*50
{MODE TimeValid PPS}*35
{16FB20CD P}*70
{16FC5493 $GPDTM,W84,,0.0,N,0.0,E,0.0,W84*6F}*3E
{16FD7965 $GPRMC,204712.00,A,4526.08522,N,12242.38149,W,0.081,,301124,,,A*64}*46
{16FFA382 $GPGGA,204712.00,4526.08522,N,12242.38149,W,1,05,2.04,184.7,M,-21.2,M,,*61}*31
{17021068 $PUBX,04,204712.00,301124,593231.99,2342,16D,466137,-753.029,21*70}*54
{MODE TimeValid PPS}*35
{1719A588 P}*0C
{171ABDDA $GPDTM,W84,,0.0,N,0.0,E,0.0,W84*6F}*42
{171BE2AC $GPRMC,204713.00,A,4526.08525,N,12242.38140,W,0.009,,301124,,,A*6B}*37
{171E0CC0 $GPGGA,204713.00,4526.08525,N,12242.38140,W,1,05,2.04,184.8,M,-21.2,M,,*61}*3C
{1720799B $PUBX,04,204713.00,301124,593232.99,2342,16D,465384,-752.570,21*73}*2E
{MODE TimeValid PPS}*35
{17382A42 P}*0E
{173960A9 $GPDTM,W84,,0.0,N,0.0,E,0.0,W84*6F}*45
{173A8584 $GPRMC,204714.00,A,4526.08526,N,12242.38134,W,0.064,,301124,,,A*67}*3B
{173CAF98 $GPGGA,204714.00,4526.08526,N,12242.38134,W,1,05,2.04,184.8,M,-21.2,M,,*66}*3E
{173F1C5D $PUBX,04,204714.00,301124,593233.99,2342,16D,464632,-752.660,21*7E}*54
{MODE TimeValid PPS}*35
{1756AEFA P}*70
{1757DAB1 $GPDTM,W84,,0.0,N,0.0,E,0.0,W84*6F}*45
{1758FF98 $GPRMC,204715.00,A,4526.08528,N,12242.38128,W,0.168,,301124,,,A*68}*44
{175B29AB $GPGGA,204715.00,4526.08528,N,12242.38128,W,1,05,2.04,184.9,M,-21.2,M,,*65}*37
{175D9685 $PUBX,04,204715.00,301124,593234.99,2342,16D,463879,-753.725,21*7F}*53
{MODE TimeValid PPS}*35
{177533B2 P}*02
{17766977 $GPDTM,W84,,0.0,N,0.0,E,0.0,W84*6F}*3F
{17778E5E $GPRMC,204716.00,A,4526.08534,N,12242.38117,W,0.116,,301124,,,A*63}*45
{1779B866 $GPGGA,204716.00,4526.08534,N,12242.38117,W,1,05,2.04,185.0,M,-21.2,M,,*6F}*45
{177C252C $PUBX,04,204716.00,301124,593235.99,2342,16D,463125,-754.021,21*79}*5B
{MODE TimeValid PPS}*35
{1793B86C P}*75
{1794E0D7 $GPDTM,W84,,0.0,N,0.0,E,0.0,W84*6F}*3A
{179605BC $GPRMC,204717.00,A,4526.08540,N,12242.38109,W,0.079,,301124,,,A*66}*43
{17982FD1 $GPGGA,204717.00,4526.08540,N,12242.38109,W,1,05,2.04,185.1,M,-21.2,M,,*63}*48
{179A9C8A $PUBX,04,204717.00,301124,593236.99,2342,16D,462372,-753.415,21*7E}*59
{MODE TimeValid PPS}*35
{17B23D25 P}*70
{17B37997 $GPDTM,W84,,0.0,N,0.0,E,0.0,W84*6F}*40
{17B49E68 $GPRMC,204718.00,A,4526.08543,N,12242.38101,W,0.040,,301124,,,A*68}*4C
{17B6C886 $GPGGA,204718.00,4526.08543,N,12242.38101,W,1,05,2.04,185.2,M,-21.2,M,,*64}*49
{17B9354A $PUBX,04,204718.00,301124,593237.99,2342,16D,461619,-753.276,21*78}*51
{MODE TimeValid PPS}*35
{17D0C1DD P}*76
{17D1F88E $GPDTM,W84,,0.0,N,0.0,E,0.0,W84*6F}*47
{17D31D73 $GPRMC,204719.00,A,4526.08552,N,12242.38090,W,0.097,,301124,,,A*6A}*35
{17D54788 $GPGGA,204719.00,4526.08552,N,12242.38090,W,1,05,2.04,185.4,M,-21.2,M,,*6A}*41
{17D7B443 $PUBX,04,204719.00,301124,593238.99,2342,16D,460866,-753.824,21*7C}*24
{MODE TimeValid PPS}*35
{17EF4695 P}*7D
{17F070D5 $GPDTM,W84,,0.0,N,0.0,E,0.0,W84*6F}*31
{17F195C4 $GPRMC,204720.00,A,4526.08557,N,12242.38080,W,0.065,,301124,,,A*69}*44
{17F3BFAE $GPGGA,204720.00,4526.08557,N,12242.38080,W,1,05,2.04,185.5,M,-21.2,M,,*65}*3D
{17F62C9D $PUBX,04,204720.00,301124,593239.99,2342,16D,460113,-754.254,21*76}*25
{MODE TimeValid PPS}*35
{180DCB4E P}*7B
{180EFA6D $GPDTM,W84,,0.0,N,0.0,E,0.0,W84*6F}*3E
{18101F4A $GPRMC,204721.00,A,4526.08561,N,12242.38069,W,0.051,,301124,,,A*6D}*3D
{18124968 $GPGGA,204721.00,4526.08561,N,12242.38069,W,1,05,2.04,185.6,M,-21.2,M,,*65}*47
{1814B663 $PUBX,04,204721.00,301124,593240.99,2342,16D,459359,-753.901,21*73}*22
{MODE TimeValid PPS}*35
{182C5007 P}*0C
{182D8B4C $GPDTM,W84,,0.0,N,0.0,E,0.0,W84*6F}*45
{182EB032 $GPRMC,204722.00,A,4526.08564,N,12242.38058,W,0.021,,301124,,,A*6E}*38
{1830DA50 $GPGGA,204722.00,4526.08564,N,12242.38058,W,1,05,2.04,185.7,M,-21.2,M,,*60}*44
{18334721 $PUBX,04,204722.00,301124,593241.99,2342,16D,458606,-753.670,21*76}*56
{MODE TimeValid PPS}*35
{184AD4BF P}*7E
{184C056B $GPDTM,W84,,0.0,N,0.0,E,0.0,W84*6F}*38
{184D2A52 $GPRMC,204723.00,A,4526.08561,N,12242.38053,W,0.056,,301124,,,A*61}*43
{184F546F $GPGGA,204723.00,4526.08561,N,12242.38053,W,1,05,2.04,185.5,M,-21.2,M,,*6D}*3D
{1851C136 $PUBX,04,204723.00,301124,593242.99,2342,16D,457852,-753.809,21*74}*25
{MODE TimeValid PPS}*35
{18695977 P}*7C
{186A8925 $GPDTM,W84,,0.0,N,0.0,E,0.0,W84*6F}*4F
{186BAE00 $GPRMC,204724.00,A,4526.08561,N,12242.38046,W,0.081,,301124,,,A*68}*37
{186DD814 $GPGGA,204724.00,4526.08561,N,12242.38046,W,1,05,2.04,185.5,M,-21.2,M,,*6E}*37
{187044D9 $PUBX,04,204724.00,301124,593243.99,2342,16D,457098,-754.328,21*73}*2C
{MODE TimeValid PPS}*35
{1887DE2E P}*06
{18891014 $GPDTM,W84,,0.0,N,0.0,E,0.0,W84*6F}*3B
{188A34EF $GPRMC,204725.00,A,4526.08557,N,12242.38042,W,0.079,,301124,,,A*6F}*43
{188C5F19 $GPGGA,204725.00,4526.08557,N,12242.38042,W,1,05,2.04,185.3,M,-21.2,M,,*68}*47
{188ECBD2 $PUBX,04,204725.00,301124,593244.99,2342,16D,456343,-754.612,21*7D}*25
{MODE TimeValid PPS}*35
{18A662E8 P}*71
{18A79813 $GPDTM,W84,,0.0,N,0.0,E,0.0,W84*6F}*4B
{18A8BD01 $GPRMC,204726.00,A,4526.08561,N,12242.38029,W,0.022,,301124,,,A*6A}*42
{18AAE717 $GPGGA,204726.00,4526.08561,N,12242.38029,W,1,05,2.04,185.5,M,-21.2,M,,*65}*33
{18AD53DC $PUBX,04,204726.00,301124,593245.99,2342,16D,455589,-754.047,21*7A}*29
{MODE TimeValid PPS}*35
{18C4E7A1 P}*0A
{18C6123C $GPDTM,W84,,0.0,N,0.0,E,0.0,W84*6F}*38
{18C73723 $GPRMC,204727.00,A,4526.08561,N,12242.38018,W,0.014,,301124,,,A*6C}*49
{18C96117 $GPGGA,204727.00,4526.08561,N,12242.38018,W,1,05,2.04,185.6,M,-21.2,M,,*65}*3C
{18CBCDFA $PUBX,04,204727.00,301124,593246.99,2342,16D,454836,-754.085,21*7E}*2C
{MODE TimeValid PPS}*35
{18E36C57 P}*7E
{18E4A14C $GPDTM,W84,,0.0,N,0.0,E,0.0,W84*6F}*48
{18E5C633 $GPRMC,204728.00,A,4526.08561,N,12242.38007,W,0.105,,301124,,,A*6C}*3D
{18E7F03C $GPGGA,204728.00,4526.08561,N,12242.38007,W,1,05,2.04,185.8,M,-21.2,M,,*6A}*48
{18EA5D02 $PUBX,04,204728.00,301124,593247.99,2342,16D,454081,-755.120,21*7B}*58
{MODE TimeValid PPS}*35
{1901F10E P}*7D
{19031850 $GPDTM,W84,,0.0,N,0.0,E,0.0,W84*6F}*30
{19043D2A $GPRMC,204729.00,A,4526.08565,N,12242.37996,W,0.138,,301124,,,A*69}*46
{1906673E $GPGGA,204729.00,4526.08565,N,12242.37996,W,1,05,2.04,185.9,M,-21.2,M,,*60}*37
{1908D3F8 $PUBX,04,204729.00,301124,593248.99,2342,16D,453326,-755.405,21*7E}*2D
{MODE TimeValid PPS}*35
{192075C6 P}*0B
{1921A7C6 $GPDTM,W84,,0.0,N,0.0,E,0.0,W84*6F}*3F
{1922CCA0 $GPRMC,204730.00,A,4526.08567,N,12242.37983,W,0.056,,301124,,,A*6E}*4C
{1924F6B6 $GPGGA,204730.00,4526.08567,N,12242.37983,W,1,05,2.04,186.1,M,-21.2,M,,*65}*44
{1927637B $PUBX,04,204730.00,301124,593249.99,2342,16D,452572,-754.791,21*7E}*59
{MODE TimeValid PPS}*35
{193EFA7F P}*7E
{19400F38 $GPDTM,W84,,0.0,N,0.0,E,0.0,W84*6F}*46
{19413413 $GPRMC,204731.00,A,4526.08565,N,12242.37972,W,0.089,,301124,,,A*61}*46
{19435E1A $GPGGA,204731.00,4526.08565,N,12242.37972,W,1,05,2.04,186.2,M,-21.2,M,,*6B}*38
