2024/11/30 12:43:38 IotaGFTapp 1.3.3 started...
2024/11/30 12:43:38 ... the serial port will be opened at 8,N,1 and 250000 baudrate.
2024/11/30 12:43:38 Listening on 127.0.0.1:33001
2024/11/30 12:43:38 Waiting for client...
2024/11/30 12:43:55 COM4 was opened successfully.
2024/11/30 12:46:02 
2024/11/30 12:46:02 {0F00AD30 $GPRMC,204605.00,A,4526.06374,N,12242.45708,W,0.068,,301124,,,A*66}
2024/11/30 12:46:02 {0F053B84 $PUBX,04,204605.00,301124,593165.00,2342,16D,515884,-740.854,21*71}
2024/11/30 12:46:02 PUBX04 gpsUtcOffset:  16D
2024/11/30 12:46:02 gpsTimestamp::  2024-11-30T20:46:21.000000
2024/11/30 12:46:02 utcTimestamp::  2024-11-30T20:46:03.000000
2024/11/30 12:46:03 
2024/11/30 12:46:03 {0F1F3485 $GPRMC,204606.00,A,4526.06349,N,12242.45663,W,0.023,,301124,,,A*68}
2024/11/30 12:46:04 {0F23C2E0 $PUBX,04,204606.00,301124,593166.00,2342,16D,515143,-741.237,21*7D}
2024/11/30 12:46:04 PUBX04 gpsUtcOffset:  16D
2024/11/30 12:46:04 gpsTimestamp::  2024-11-30T20:46:22.000000
2024/11/30 12:46:04 utcTimestamp::  2024-11-30T20:46:04.000000
2024/11/30 12:46:04 
2024/11/30 12:46:04 {0F3DBD28 $GPRMC,204607.00,A,4526.06362,N,12242.45669,W,0.017,,301124,,,A*6D}
2024/11/30 12:46:05 {0F424B92 $PUBX,04,204607.00,301124,593167.00,2342,16D,514402,-741.351,21*7D}
2024/11/30 12:46:05 PUBX04 gpsUtcOffset:  16D
2024/11/30 12:46:05 gpsTimestamp::  2024-11-30T20:46:23.000000
2024/11/30 12:46:05 utcTimestamp::  2024-11-30T20:46:05.000000
2024/11/30 12:46:05 
2024/11/30 12:46:05 {0F5C44DE $GPRMC,204608.00,A,4526.06366,N,12242.45669,W,0.182,,301124,,,A*6B}
2024/11/30 12:46:06 {0F60D33B $PUBX,04,204608.00,301124,593168.00,2342,16D,513660,-741.805,21*76}
2024/11/30 12:46:06 PUBX04 gpsUtcOffset:  16D
2024/11/30 12:46:06 gpsTimestamp::  2024-11-30T20:46:24.000000
2024/11/30 12:46:06 utcTimestamp::  2024-11-30T20:46:06.000000
2024/11/30 12:46:06 
2024/11/30 12:46:06 {0F7ABF6F $GPRMC,204609.00,A,4526.06375,N,12242.45673,W,0.077,,301124,,,A*68}
2024/11/30 12:46:06 {0F7F4DCA $PUBX,04,204609.00,301124,593169.00,2342,16D,512918,-742.461,21*7A}
2024/11/30 12:46:06 PUBX04 gpsUtcOffset:  16D
2024/11/30 12:46:06 gpsTimestamp::  2024-11-30T20:46:25.000000
2024/11/30 12:46:06 utcTimestamp::  2024-11-30T20:46:07.000000
2024/11/30 12:46:07 
2024/11/30 12:46:07 {0F9953DD $GPRMC,204610.00,A,4526.06379,N,12242.45677,W,0.073,,301124,,,A*6C}
2024/11/30 12:46:07 {0F9DE23C $PUBX,04,204610.00,301124,593170.00,2342,16D,512176,-743.072,21*7D}
2024/11/30 12:46:07 PUBX04 gpsUtcOffset:  16D
2024/11/30 12:46:07 gpsTimestamp::  2024-11-30T20:46:26.000000
2024/11/30 12:46:07 utcTimestamp::  2024-11-30T20:46:08.000000
2024/11/30 12:46:08 
2024/11/30 12:46:08 {0FB7C67E $GPRMC,204611.00,A,4526.06372,N,12242.45666,W,0.061,,301124,,,A*65}
2024/11/30 12:46:09 {0FBC54D8 $PUBX,04,204611.00,301124,593171.00,2342,16D,511433,-743.384,21*70}
2024/11/30 12:46:09 PUBX04 gpsUtcOffset:  16D
2024/11/30 12:46:09 gpsTimestamp::  2024-11-30T20:46:27.000000
2024/11/30 12:46:09 utcTimestamp::  2024-11-30T20:46:09.000000
2024/11/30 12:46:09 
2024/11/30 12:46:09 {0FD673D0 $GPRMC,204612.00,A,4526.06375,N,12242.45664,W,0.135,,301124,,,A*63}
2024/11/30 12:46:09 {0FDB0241 $PUBX,04,204612.00,301124,593172.00,2342,16D,510689,-743.484,21*75}
2024/11/30 12:46:09 PUBX04 gpsUtcOffset:  16D
2024/11/30 12:46:09 gpsTimestamp::  2024-11-30T20:46:28.000000
2024/11/30 12:46:09 utcTimestamp::  2024-11-30T20:46:10.000000
2024/11/30 12:46:10 
2024/11/30 12:46:10 {0FF4DD6D $GPRMC,204613.00,A,4526.06375,N,12242.45663,W,0.110,,301124,,,A*62}
2024/11/30 12:46:10 {0FF96BD4 $PUBX,04,204613.00,301124,593173.00,2342,16D,509946,-743.583,21*77}
2024/11/30 12:46:10 PUBX04 gpsUtcOffset:  16D
2024/11/30 12:46:10 gpsTimestamp::  2024-11-30T20:46:29.000000
2024/11/30 12:46:10 utcTimestamp::  2024-11-30T20:46:11.000000
2024/11/30 12:46:11 
2024/11/30 12:46:11 {1013727C $GPRMC,204614.00,A,4526.06384,N,12242.45670,W,0.081,,301124,,,A*60}
2024/11/30 12:46:12 {101800EE $PUBX,04,204614.00,301124,593174.00,2342,16D,509202,-743.908,21*73}
2024/11/30 12:46:12 PUBX04 gpsUtcOffset:  16D
2024/11/30 12:46:12 gpsTimestamp::  2024-11-30T20:46:30.000000
2024/11/30 12:46:12 utcTimestamp::  2024-11-30T20:46:12.000000
2024/11/30 12:46:12 
2024/11/30 12:46:12 {1031FAA7 $GPRMC,204615.00,A,4526.06382,N,12242.45665,W,0.059,,301124,,,A*66}
2024/11/30 12:46:12 {10368922 $PUBX,04,204615.00,301124,593175.00,2342,16D,508458,-744.744,21*7A}
2024/11/30 12:46:12 PUBX04 gpsUtcOffset:  16D
2024/11/30 12:46:12 gpsTimestamp::  2024-11-30T20:46:31.000000
2024/11/30 12:46:12 utcTimestamp::  2024-11-30T20:46:13.000000
2024/11/30 12:46:13 
2024/11/30 12:46:13 {105077F2 $GPRMC,204616.00,A,4526.06378,N,12242.45657,W,0.085,,301124,,,A*60}
2024/11/30 12:46:13 {10550664 $PUBX,04,204616.00,301124,593176.00,2342,16D,507713,-745.130,21*7D}
2024/11/30 12:46:13 PUBX04 gpsUtcOffset:  16D
2024/11/30 12:46:13 gpsTimestamp::  2024-11-30T20:46:32.000000
2024/11/30 12:46:13 utcTimestamp::  2024-11-30T20:46:14.000000
2024/11/30 12:46:14 
2024/11/30 12:46:14 {106EECD3 $GPRMC,204617.00,A,4526.06374,N,12242.45654,W,0.181,,301124,,,A*6B}
2024/11/30 12:46:14 {10737B27 $PUBX,04,204617.00,301124,593177.00,2342,16D,506968,-745.306,21*79}
2024/11/30 12:46:14 PUBX04 gpsUtcOffset:  16D
2024/11/30 12:46:14 gpsTimestamp::  2024-11-30T20:46:33.000000
2024/11/30 12:46:14 utcTimestamp::  2024-11-30T20:46:15.000000
2024/11/30 12:46:15 
2024/11/30 12:46:15 {108D865E $GPRMC,204618.00,A,4526.06384,N,12242.45662,W,0.259,,301124,,,A*68}
2024/11/30 12:46:15 {109214B8 $PUBX,04,204618.00,301124,593178.00,2342,16D,506223,-745.238,21*71}
2024/11/30 12:46:15 PUBX04 gpsUtcOffset:  16D
2024/11/30 12:46:15 gpsTimestamp::  2024-11-30T20:46:34.000000
2024/11/30 12:46:15 utcTimestamp::  2024-11-30T20:46:16.000000
2024/11/30 12:46:16 
2024/11/30 12:46:16 {10ABEEAE $GPRMC,204619.00,A,4526.06392,N,12242.45671,W,0.209,,301124,,,A*69}
2024/11/30 12:46:16 {10B07D09 $PUBX,04,204619.00,301124,593179.00,2342,16D,505478,-744.824,21*7C}
2024/11/30 12:46:16 PUBX04 gpsUtcOffset:  16D
2024/11/30 12:46:16 gpsTimestamp::  2024-11-30T20:46:35.000000
2024/11/30 12:46:16 utcTimestamp::  2024-11-30T20:46:17.000000
2024/11/30 12:46:17 
2024/11/30 12:46:17 {10CA8A32 $GPRMC,204620.00,A,4526.06395,N,12242.45684,W,0.102,,301124,,,A*66}
2024/11/30 12:46:17 {10CF18AE $PUBX,04,204620.00,301124,593180.00,2342,16D,504732,-746.246,21*70}
2024/11/30 12:46:17 PUBX04 gpsUtcOffset:  16D
2024/11/30 12:46:17 gpsTimestamp::  2024-11-30T20:46:36.000000
2024/11/30 12:46:17 utcTimestamp::  2024-11-30T20:46:18.000000
2024/11/30 12:46:18 
2024/11/30 12:46:18 {10E8F9F9 $GPRMC,204621.00,A,4526.06396,N,12242.45687,W,0.081,,301124,,,A*6D}
2024/11/30 12:46:19 {10ED8877 $PUBX,04,204621.00,301124,593181.00,2342,16D,503986,-746.826,21*7A}
2024/11/30 12:46:19 PUBX04 gpsUtcOffset:  16D
2024/11/30 12:46:19 gpsTimestamp::  2024-11-30T20:46:37.000000
2024/11/30 12:46:19 utcTimestamp::  2024-11-30T20:46:19.000000
2024/11/30 12:46:19 
2024/11/30 12:46:19 {11078434 $GPRMC,204622.00,A,4526.06401,N,12242.45692,W,0.097,,301124,,,A*64}
2024/11/30 12:46:19 {110C129B $PUBX,04,204622.00,301124,593182.00,2342,16D,503240,-745.834,21*7B}
2024/11/30 12:46:19 PUBX04 gpsUtcOffset:  16D
2024/11/30 12:46:19 gpsTimestamp::  2024-11-30T20:46:38.000000
2024/11/30 12:46:19 utcTimestamp::  2024-11-30T20:46:20.000000
2024/11/30 12:46:20 
2024/11/30 12:46:20 {11260449 $GPRMC,204623.00,A,4526.06405,N,12242.45695,W,0.076,,301124,,,A*69}
2024/11/30 12:46:20 {112A92BB $PUBX,04,204623.00,301124,593183.00,2342,16D,502494,-745.679,21*72}
2024/11/30 12:46:20 PUBX04 gpsUtcOffset:  16D
2024/11/30 12:46:20 gpsTimestamp::  2024-11-30T20:46:39.000000
2024/11/30 12:46:20 utcTimestamp::  2024-11-30T20:46:21.000000
2024/11/30 12:46:21 
2024/11/30 12:46:21 {11449E10 $GPRMC,204624.00,A,4526.06406,N,12242.45704,W,0.086,,301124,,,A*6B}
2024/11/30 12:46:22 {11492C78 $PUBX,04,204624.00,301124,593184.00,2342,16D,501748,-746.931,21*73}
2024/11/30 12:46:22 PUBX04 gpsUtcOffset:  16D
2024/11/30 12:46:22 gpsTimestamp::  2024-11-30T20:46:40.000000
2024/11/30 12:46:22 utcTimestamp::  2024-11-30T20:46:22.000000
2024/11/30 12:46:22 
2024/11/30 12:46:22 {116326FC $GPRMC,204625.00,A,4526.06404,N,12242.45713,W,0.049,,301124,,,A*6D}
2024/11/30 12:46:22 {1167B560 $PUBX,04,204625.00,301124,593185.00,2342,16D,501000,-747.334,21*76}
2024/11/30 12:46:22 PUBX04 gpsUtcOffset:  16D
2024/11/30 12:46:22 gpsTimestamp::  2024-11-30T20:46:41.000000
2024/11/30 12:46:22 utcTimestamp::  2024-11-30T20:46:23.000000
2024/11/30 12:46:23 
2024/11/30 12:46:23 {1181A50D $GPRMC,204626.00,A,4526.06406,N,12242.45723,W,0.151,,301124,,,A*67}
2024/11/30 12:46:23 {11863374 $PUBX,04,204626.00,301124,593186.00,2342,16D,500253,-746.925,21*78}
2024/11/30 12:46:23 PUBX04 gpsUtcOffset:  16D
2024/11/30 12:46:23 gpsTimestamp::  2024-11-30T20:46:42.000000
2024/11/30 12:46:23 utcTimestamp::  2024-11-30T20:46:24.000000
2024/11/30 12:46:24 
2024/11/30 12:46:24 {11A00ECE $GPRMC,204627.00,A,4526.06406,N,12242.45734,W,0.131,,301124,,,A*66}
2024/11/30 12:46:25 {11A49D1D $PUBX,04,204627.00,301124,593187.00,2342,16D,499507,-746.568,21*7A}
2024/11/30 12:46:25 PUBX04 gpsUtcOffset:  16D
2024/11/30 12:46:25 gpsTimestamp::  2024-11-30T20:46:43.000000
2024/11/30 12:46:25 utcTimestamp::  2024-11-30T20:46:25.000000
2024/11/30 12:46:25 
2024/11/30 12:46:25 {11BE96A7 $GPRMC,204628.00,A,4526.06409,N,12242.45744,W,0.096,,301124,,,A*6D}
2024/11/30 12:46:26 {11C32518 $PUBX,04,204628.00,301124,593187.99,2342,16D,498761,-746.761,21*7D}
2024/11/30 12:46:26 PUBX04 gpsUtcOffset:  16D
2024/11/30 12:46:26 gpsTimestamp::  2024-11-30T20:46:44.000000
2024/11/30 12:46:26 utcTimestamp::  2024-11-30T20:46:26.000000
2024/11/30 12:46:26 
2024/11/30 12:46:26 {11DD18D7 $GPRMC,204629.00,A,4526.06411,N,12242.45760,W,0.163,,301124,,,A*68}
2024/11/30 12:46:27 {11E1A747 $PUBX,04,204629.00,301124,593188.99,2342,16D,498013,-747.801,21*79}
2024/11/30 12:46:27 PUBX04 gpsUtcOffset:  16D
2024/11/30 12:46:27 gpsTimestamp::  2024-11-30T20:46:45.000000
2024/11/30 12:46:27 utcTimestamp::  2024-11-30T20:46:27.000000
2024/11/30 12:46:27 
2024/11/30 12:46:27 {11FB9BBE $GPRMC,204630.00,A,4526.06409,N,12242.45772,W,0.166,,301124,,,A*6F}
2024/11/30 12:46:28 {12002A27 $PUBX,04,204630.00,301124,593189.99,2342,16D,497265,-747.960,21*7A}
2024/11/30 12:46:28 PUBX04 gpsUtcOffset:  16D
2024/11/30 12:46:28 gpsTimestamp::  2024-11-30T20:46:46.000000
2024/11/30 12:46:28 utcTimestamp::  2024-11-30T20:46:28.000000
2024/11/30 12:46:28 
2024/11/30 12:46:28 {121A1BAB $GPRMC,204631.00,A,4526.06406,N,12242.45787,W,0.127,,301124,,,A*6E}
2024/11/30 12:46:28 {121EAA07 $PUBX,04,204631.00,301124,593190.99,2342,16D,496517,-746.947,21*74}
2024/11/30 12:46:28 PUBX04 gpsUtcOffset:  16D
2024/11/30 12:46:28 gpsTimestamp::  2024-11-30T20:46:47.000000
2024/11/30 12:46:28 utcTimestamp::  2024-11-30T20:46:29.000000
2024/11/30 12:46:29 
2024/11/30 12:46:29 {1238A81B $GPRMC,204632.00,A,4526.06407,N,12242.45819,W,0.116,,301124,,,A*66}
2024/11/30 12:46:29 {123D3696 $PUBX,04,204632.00,301124,593191.99,2342,16D,495770,-746.963,21*70}
2024/11/30 12:46:29 PUBX04 gpsUtcOffset:  16D
2024/11/30 12:46:29 gpsTimestamp::  2024-11-30T20:46:48.000000
2024/11/30 12:46:29 utcTimestamp::  2024-11-30T20:46:30.000000
2024/11/30 12:46:38 
2024/11/30 12:46:38 {134B71A2 $GPRMC,204641.00,A,4526.07183,N,12242.41229,W,1.296,,301124,,,A*6D}
2024/11/30 12:46:39 {13500891 $PUBX,04,204641.00,301124,593200.99,2342,16D,489248,-747.565,21*77}
2024/11/30 12:46:39 PUBX04 gpsUtcOffset:  16D
2024/11/30 12:46:39 gpsTimestamp::  2024-11-30T20:46:57.000000
2024/11/30 12:46:39 utcTimestamp::  2024-11-30T20:46:39.000000
2024/11/30 12:46:39 
2024/11/30 12:46:39 {136A0201 $GPRMC,204642.00,A,4526.07200,N,12242.41232,W,0.893,,301124,,,A*62}
2024/11/30 12:46:39 {136E98E4 $PUBX,04,204642.00,301124,593201.99,2342,16D,488500,-747.049,21*74}
2024/11/30 12:46:39 PUBX04 gpsUtcOffset:  16D
2024/11/30 12:46:39 gpsTimestamp::  2024-11-30T20:46:58.000000
2024/11/30 12:46:39 utcTimestamp::  2024-11-30T20:46:40.000000
2024/11/30 12:46:40 
2024/11/30 12:46:40 {13886BC7 $GPRMC,204643.00,A,4526.07236,N,12242.41175,W,0.785,,301124,,,A*6E}
2024/11/30 12:46:40 {138D0296 $PUBX,04,204643.00,301124,593202.99,2342,16D,487755,-747.403,21*71}
2024/11/30 12:46:40 PUBX04 gpsUtcOffset:  16D
2024/11/30 12:46:40 gpsTimestamp::  2024-11-30T20:46:59.000000
2024/11/30 12:46:40 utcTimestamp::  2024-11-30T20:46:41.000000
2024/11/30 12:46:41 
2024/11/30 12:46:41 {13A6F035 $GPRMC,204644.00,A,4526.07238,N,12242.41181,W,0.501,,301124,,,A*62}
2024/11/30 12:46:41 {13AB8724 $PUBX,04,204644.00,301124,593203.99,2342,16D,487005,-749.374,21*7C}
2024/11/30 12:46:41 PUBX04 gpsUtcOffset:  16D
2024/11/30 12:46:41 gpsTimestamp::  2024-11-30T20:47:00.000000
2024/11/30 12:46:41 utcTimestamp::  2024-11-30T20:46:42.000000
2024/11/30 12:46:42 
2024/11/30 12:46:42 {13C584BA $GPRMC,204645.00,A,4526.07270,N,12242.41128,W,0.574,,301124,,,A*6E}
2024/11/30 12:46:43 {13CA1B95 $PUBX,04,204645.00,301124,593204.99,2342,16D,486258,-749.709,21*7F}
2024/11/30 12:46:43 PUBX04 gpsUtcOffset:  16D
2024/11/30 12:46:43 gpsTimestamp::  2024-11-30T20:47:01.000000
2024/11/30 12:46:43 utcTimestamp::  2024-11-30T20:46:43.000000
2024/11/30 12:46:43 
2024/11/30 12:46:43 {13E40B9F $GPRMC,204646.00,A,4526.07340,N,12242.40988,W,0.964,,301124,,,A*61}
2024/11/30 12:46:43 {13E8A283 $PUBX,04,204646.00,301124,593205.99,2342,16D,485517,-748.258,21*72}
2024/11/30 12:46:43 PUBX04 gpsUtcOffset:  16D
2024/11/30 12:46:43 gpsTimestamp::  2024-11-30T20:47:02.000000
2024/11/30 12:46:43 utcTimestamp::  2024-11-30T20:46:44.000000
2024/11/30 12:46:44 
2024/11/30 12:46:44 {1402835B $GPRMC,204647.00,A,4526.07388,N,12242.40879,W,0.972,,301124,,,A*6C}
2024/11/30 12:46:45 {14071A60 $PUBX,04,204647.00,301124,593206.99,2342,16D,484773,-747.650,21*72}
2024/11/30 12:46:45 PUBX04 gpsUtcOffset:  16D
2024/11/30 12:46:45 gpsTimestamp::  2024-11-30T20:47:03.000000
2024/11/30 12:46:45 utcTimestamp::  2024-11-30T20:46:45.000000
2024/11/30 12:46:45 
2024/11/30 12:46:45 {14211534 $GPRMC,204648.00,A,4526.07422,N,12242.40808,W,1.124,,301124,,,A*68}
2024/11/30 12:46:45 {1425AC17 $PUBX,04,204648.00,301124,593207.99,2342,16D,484028,-747.944,21*7F}
2024/11/30 12:46:45 PUBX04 gpsUtcOffset:  16D
2024/11/30 12:46:45 gpsTimestamp::  2024-11-30T20:47:04.000000
2024/11/30 12:46:45 utcTimestamp::  2024-11-30T20:46:46.000000
2024/11/30 12:46:46 
2024/11/30 12:46:46 {143F8A11 $GPRMC,204649.00,A,4526.07503,N,12242.40638,W,1.520,56.45,301124,,,A*4A}
2024/11/30 12:46:47 {144449A1 $PUBX,04,204649.00,301124,593208.99,2342,16D,483287,-748.176,21*77}
2024/11/30 12:46:47 PUBX04 gpsUtcOffset:  16D
2024/11/30 12:46:47 gpsTimestamp::  2024-11-30T20:47:05.000000
2024/11/30 12:46:47 utcTimestamp::  2024-11-30T20:46:47.000000
2024/11/30 12:46:47 
2024/11/30 12:46:47 {145E29FA $GPRMC,204650.00,A,4526.07593,N,12242.40450,W,1.718,54.81,301124,,,A*44}
2024/11/30 12:46:48 {1462E97E $PUBX,04,204650.00,301124,593209.99,2342,16D,482548,-747.752,21*74}
2024/11/30 12:46:48 PUBX04 gpsUtcOffset:  16D
2024/11/30 12:46:48 gpsTimestamp::  2024-11-30T20:47:06.000000
2024/11/30 12:46:48 utcTimestamp::  2024-11-30T20:46:48.000000
2024/11/30 12:46:48 
2024/11/30 12:46:48 {147CB1AA $GPRMC,204651.00,A,4526.08040,N,12242.39449,W,0.596,,301124,,,A*64}
2024/11/30 12:46:49 {1481489A $PUBX,04,204651.00,301124,593210.99,2342,16D,481857,-748.798,21*74}
2024/11/30 12:46:49 PUBX04 gpsUtcOffset:  16D
2024/11/30 12:46:49 gpsTimestamp::  2024-11-30T20:47:07.000000
2024/11/30 12:46:49 utcTimestamp::  2024-11-30T20:46:49.000000
2024/11/30 12:46:49 
2024/11/30 12:46:49 {149B1E54 $GPRMC,204652.00,A,4526.08231,N,12242.39014,W,0.387,,301124,,,A*69}
2024/11/30 12:46:50 {149FB515 $PUBX,04,204652.00,301124,593211.99,2342,16D,481132,-749.874,21*70}
2024/11/30 12:46:50 PUBX04 gpsUtcOffset:  16D
2024/11/30 12:46:50 gpsTimestamp::  2024-11-30T20:47:08.000000
2024/11/30 12:46:50 utcTimestamp::  2024-11-30T20:46:50.000000
2024/11/30 12:46:50 
2024/11/30 12:46:50 {14B990B9 $GPRMC,204653.00,A,4526.08327,N,12242.38793,W,0.209,,301124,,,A*60}
2024/11/30 12:46:50 {14BE27A7 $PUBX,04,204653.00,301124,593212.99,2342,16D,480394,-751.391,21*74}
2024/11/30 12:46:50 PUBX04 gpsUtcOffset:  16D
2024/11/30 12:46:50 gpsTimestamp::  2024-11-30T20:47:09.000000
2024/11/30 12:46:50 utcTimestamp::  2024-11-30T20:46:51.000000
2024/11/30 12:46:51 
2024/11/30 12:46:51 {14D82B4F $GPRMC,204654.00,A,4526.08372,N,12242.38682,W,0.162,,301124,,,A*68}
2024/11/30 12:46:51 {14DCC21D $PUBX,04,204654.00,301124,593213.99,2342,16D,479648,-751.630,21*7E}
2024/11/30 12:46:51 PUBX04 gpsUtcOffset:  16D
2024/11/30 12:46:51 gpsTimestamp::  2024-11-30T20:47:10.000000
2024/11/30 12:46:51 utcTimestamp::  2024-11-30T20:46:52.000000
2024/11/30 12:46:52 
2024/11/30 12:46:52 {14F6A0FF $GPRMC,204655.00,A,4526.08404,N,12242.38606,W,0.148,,301124,,,A*6B}
2024/11/30 12:46:53 {14FB37D9 $PUBX,04,204655.00,301124,593214.99,2342,16D,478901,-750.683,21*72}
2024/11/30 12:46:53 PUBX04 gpsUtcOffset:  16D
2024/11/30 12:46:53 gpsTimestamp::  2024-11-30T20:47:11.000000
2024/11/30 12:46:53 utcTimestamp::  2024-11-30T20:46:53.000000
2024/11/30 12:46:53 
2024/11/30 12:46:53 {15152B2B $GPRMC,204656.00,A,4526.08420,N,12242.38552,W,0.053,,301124,,,A*67}
2024/11/30 12:46:53 {1519C224 $PUBX,04,204656.00,301124,593215.99,2342,16D,478153,-750.663,21*71}
2024/11/30 12:46:53 PUBX04 gpsUtcOffset:  16D
2024/11/30 12:46:53 gpsTimestamp::  2024-11-30T20:47:12.000000
2024/11/30 12:46:53 utcTimestamp::  2024-11-30T20:46:54.000000
2024/11/30 12:46:54 
2024/11/30 12:46:54 {1533A215 $GPRMC,204657.00,A,4526.08430,N,12242.38512,W,0.232,,301124,,,A*66}
2024/11/30 12:46:55 {15383904 $PUBX,04,204657.00,301124,593216.99,2342,16D,477403,-751.516,21*7C}
2024/11/30 12:46:55 PUBX04 gpsUtcOffset:  16D
2024/11/30 12:46:55 gpsTimestamp::  2024-11-30T20:47:13.000000
2024/11/30 12:46:55 utcTimestamp::  2024-11-30T20:46:55.000000
2024/11/30 12:46:55 
2024/11/30 12:46:55 {155235D2 $GPRMC,204658.00,A,4526.08449,N,12242.38457,W,0.121,,301124,,,A*66}
2024/11/30 12:46:55 {1556CCB6 $PUBX,04,204658.00,301124,593217.99,2342,16D,476655,-751.759,21*7B}
2024/11/30 12:46:55 PUBX04 gpsUtcOffset:  16D
2024/11/30 12:46:55 gpsTimestamp::  2024-11-30T20:47:14.000000
2024/11/30 12:46:55 utcTimestamp::  2024-11-30T20:46:56.000000
2024/11/30 12:46:56 
2024/11/30 12:46:56 {1570AAFB $GPRMC,204659.00,A,4526.08452,N,12242.38428,W,0.037,,301124,,,A*63}
2024/11/30 12:46:57 {157541FF $PUBX,04,204659.00,301124,593218.99,2342,16D,475904,-751.491,21*7A}
2024/11/30 12:46:57 PUBX04 gpsUtcOffset:  16D
2024/11/30 12:46:57 gpsTimestamp::  2024-11-30T20:47:15.000000
2024/11/30 12:46:57 utcTimestamp::  2024-11-30T20:46:57.000000
2024/11/30 12:46:57 
2024/11/30 12:46:57 {158F3E9A $GPRMC,204700.00,A,4526.08458,N,12242.38396,W,0.034,,301124,,,A*65}
2024/11/30 12:46:58 {1593D586 $PUBX,04,204700.00,301124,593219.99,2342,16D,475154,-751.224,21*73}
2024/11/30 12:46:58 PUBX04 gpsUtcOffset:  16D
2024/11/30 12:46:58 gpsTimestamp::  2024-11-30T20:47:16.000000
2024/11/30 12:46:58 utcTimestamp::  2024-11-30T20:46:58.000000
2024/11/30 12:46:58 
2024/11/30 12:46:58 {15ADC60D $GPRMC,204701.00,A,4526.08459,N,12242.38383,W,0.114,,301124,,,A*62}
2024/11/30 12:46:58 {15B25CE7 $PUBX,04,204701.00,301124,593220.99,2342,16D,474403,-751.418,21*77}
2024/11/30 12:46:58 PUBX04 gpsUtcOffset:  16D
2024/11/30 12:46:58 gpsTimestamp::  2024-11-30T20:47:17.000000
2024/11/30 12:46:58 utcTimestamp::  2024-11-30T20:46:59.000000
2024/11/30 12:46:59 
2024/11/30 12:46:59 {15CC4768 $GPRMC,204702.00,A,4526.08462,N,12242.38364,W,0.160,,301124,,,A*63}
2024/11/30 12:47:00 {15D0DE56 $PUBX,04,204702.00,301124,593221.99,2342,16D,473652,-751.876,21*70}
2024/11/30 12:47:00 PUBX04 gpsUtcOffset:  16D
2024/11/30 12:47:00 gpsTimestamp::  2024-11-30T20:47:18.000000
2024/11/30 12:47:00 utcTimestamp::  2024-11-30T20:47:00.000000
2024/11/30 12:47:00 
2024/11/30 12:47:00 {15EACBDE $GPRMC,204703.00,A,4526.08463,N,12242.38349,W,0.106,,301124,,,A*6C}
2024/11/30 12:47:01 {15EF62BA $PUBX,04,204703.00,301124,593222.99,2342,16D,472900,-752.125,21*77}
2024/11/30 12:47:01 PUBX04 gpsUtcOffset:  16D
2024/11/30 12:47:01 gpsTimestamp::  2024-11-30T20:47:19.000000
2024/11/30 12:47:01 utcTimestamp::  2024-11-30T20:47:01.000000
2024/11/30 12:47:01 
2024/11/30 12:47:01 {16095C7D $GPRMC,204704.00,A,4526.08467,N,12242.38334,W,0.051,,301124,,,A*66}
2024/11/30 12:47:01 {160DF361 $PUBX,04,204704.00,301124,593223.99,2342,16D,472149,-751.722,21*76}
2024/11/30 12:47:01 PUBX04 gpsUtcOffset:  16D
2024/11/30 12:47:01 gpsTimestamp::  2024-11-30T20:47:20.000000
2024/11/30 12:47:01 utcTimestamp::  2024-11-30T20:47:02.000000
2024/11/30 12:47:02 
2024/11/30 12:47:02 {1627D8F3 $GPRMC,204705.00,A,4526.08473,N,12242.38312,W,0.038,,301124,,,A*69}
2024/11/30 12:47:02 {162C6FE2 $PUBX,04,204705.00,301124,593224.99,2342,16D,471398,-751.745,21*7C}
2024/11/30 12:47:02 PUBX04 gpsUtcOffset:  16D
2024/11/30 12:47:02 gpsTimestamp::  2024-11-30T20:47:21.000000
2024/11/30 12:47:02 utcTimestamp::  2024-11-30T20:47:03.000000
2024/11/30 12:47:03 
2024/11/30 12:47:03 {16465A75 $GPRMC,204706.00,A,4526.08473,N,12242.38298,W,0.230,,301124,,,A*63}
2024/11/30 12:47:04 {164AF16E $PUBX,04,204706.00,301124,593225.99,2342,16D,470646,-752.718,21*72}
2024/11/30 12:47:04 PUBX04 gpsUtcOffset:  16D
2024/11/30 12:47:04 gpsTimestamp::  2024-11-30T20:47:22.000000
2024/11/30 12:47:04 utcTimestamp::  2024-11-30T20:47:04.000000
2024/11/30 12:47:04 
2024/11/30 12:47:04 {1664D60D $GPRMC,204707.00,A,4526.08475,N,12242.38276,W,0.158,,301124,,,A*69}
2024/11/30 12:47:04 {16696CE7 $PUBX,04,204707.00,301124,593226.99,2342,16D,469893,-752.931,21*7B}
2024/11/30 12:47:04 PUBX04 gpsUtcOffset:  16D
2024/11/30 12:47:04 gpsTimestamp::  2024-11-30T20:47:23.000000
2024/11/30 12:47:04 utcTimestamp::  2024-11-30T20:47:05.000000
2024/11/30 12:47:05 
2024/11/30 12:47:05 {16836BC5 $GPRMC,204708.00,A,4526.08475,N,12242.38259,W,0.017,,301124,,,A*61}
2024/11/30 12:47:06 {168802A8 $PUBX,04,204708.00,301124,593227.99,2342,16D,469141,-752.392,21*70}
2024/11/30 12:47:06 PUBX04 gpsUtcOffset:  16D
2024/11/30 12:47:06 gpsTimestamp::  2024-11-30T20:47:24.000000
2024/11/30 12:47:06 utcTimestamp::  2024-11-30T20:47:06.000000
2024/11/30 12:47:06 
2024/11/30 12:47:06 {16A1E64C $GPRMC,204709.00,A,4526.08494,N,12242.38220,W,0.052,,301124,,,A*60}
2024/11/30 12:47:07 {16A67D18 $PUBX,04,204709.00,301124,593228.99,2342,16D,468391,-752.275,21*78}
2024/11/30 12:47:07 PUBX04 gpsUtcOffset:  16D
2024/11/30 12:47:07 gpsTimestamp::  2024-11-30T20:47:25.000000
2024/11/30 12:47:07 utcTimestamp::  2024-11-30T20:47:07.000000
2024/11/30 12:47:07 
2024/11/30 12:47:07 {16C072A4 $GPRMC,204710.00,A,4526.08504,N,12242.38196,W,0.128,,301124,,,A*62}
2024/11/30 12:47:07 {16C50992 $PUBX,04,204710.00,301124,593229.99,2342,16D,467640,-752.473,21*77}
2024/11/30 12:47:07 PUBX04 gpsUtcOffset:  16D
2024/11/30 12:47:07 gpsTimestamp::  2024-11-30T20:47:26.000000
2024/11/30 12:47:07 utcTimestamp::  2024-11-30T20:47:08.000000
2024/11/30 12:47:08 
2024/11/30 12:47:08 {16DEE72C $GPRMC,204711.00,A,4526.08519,N,12242.38163,W,0.070,,301124,,,A*69}
2024/11/30 12:47:08 {16E37E0E $PUBX,04,204711.00,301124,593230.99,2342,16D,466889,-752.803,21*7F}
2024/11/30 12:47:08 PUBX04 gpsUtcOffset:  16D
2024/11/30 12:47:08 gpsTimestamp::  2024-11-30T20:47:27.000000
2024/11/30 12:47:08 utcTimestamp::  2024-11-30T20:47:09.000000
2024/11/30 12:47:09 
2024/11/30 12:47:09 {16FD7965 $GPRMC,204712.00,A,4526.08522,N,12242.38149,W,0.081,,301124,,,A*64}
2024/11/30 12:47:10 {17021068 $PUBX,04,204712.00,301124,593231.99,2342,16D,466137,-753.029,21*70}
2024/11/30 12:47:10 PUBX04 gpsUtcOffset:  16D
2024/11/30 12:47:10 gpsTimestamp::  2024-11-30T20:47:28.000000
2024/11/30 12:47:10 utcTimestamp::  2024-11-30T20:47:10.000000
2024/11/30 12:47:10 
2024/11/30 12:47:10 {171BE2AC $GPRMC,204713.00,A,4526.08525,N,12242.38140,W,0.009,,301124,,,A*6B}
2024/11/30 12:47:10 {1720799B $PUBX,04,204713.00,301124,593232.99,2342,16D,465384,-752.570,21*73}
2024/11/30 12:47:10 PUBX04 gpsUtcOffset:  16D
2024/11/30 12:47:10 gpsTimestamp::  2024-11-30T20:47:29.000000
2024/11/30 12:47:10 utcTimestamp::  2024-11-30T20:47:11.000000
2024/11/30 12:47:11 
2024/11/30 12:47:11 {173A8584 $GPRMC,204714.00,A,4526.08526,N,12242.38134,W,0.064,,301124,,,A*67}
2024/11/30 12:47:11 {173F1C5D $PUBX,04,204714.00,301124,593233.99,2342,16D,464632,-752.660,21*7E}
2024/11/30 12:47:11 PUBX04 gpsUtcOffset:  16D
2024/11/30 12:47:11 gpsTimestamp::  2024-11-30T20:47:30.000000
2024/11/30 12:47:11 utcTimestamp::  2024-11-30T20:47:12.000000
2024/11/30 12:47:12 
2024/11/30 12:47:12 {1758FF98 $GPRMC,204715.00,A,4526.08528,N,12242.38128,W,0.168,,301124,,,A*68}
2024/11/30 12:47:12 {175D9685 $PUBX,04,204715.00,301124,593234.99,2342,16D,463879,-753.725,21*7F}
2024/11/30 12:47:12 PUBX04 gpsUtcOffset:  16D
2024/11/30 12:47:12 gpsTimestamp::  2024-11-30T20:47:31.000000
2024/11/30 12:47:12 utcTimestamp::  2024-11-30T20:47:13.000000
2024/11/30 12:47:13 
2024/11/30 12:47:13 {17778E5E $GPRMC,204716.00,A,4526.08534,N,12242.38117,W,0.116,,301124,,,A*63}
2024/11/30 12:47:14 {177C252C $PUBX,04,204716.00,301124,593235.99,2342,16D,463125,-754.021,21*79}
2024/11/30 12:47:14 PUBX04 gpsUtcOffset:  16D
2024/11/30 12:47:14 gpsTimestamp::  2024-11-30T20:47:32.000000
2024/11/30 12:47:14 utcTimestamp::  2024-11-30T20:47:14.000000
2024/11/30 12:47:14 
2024/11/30 12:47:14 {179605BC $GPRMC,204717.00,A,4526.08540,N,12242.38109,W,0.079,,301124,,,A*66}
2024/11/30 12:47:14 {179A9C8A $PUBX,04,204717.00,301124,593236.99,2342,16D,462372,-753.415,21*7E}
2024/11/30 12:47:14 PUBX04 gpsUtcOffset:  16D
2024/11/30 12:47:14 gpsTimestamp::  2024-11-30T20:47:33.000000
2024/11/30 12:47:14 utcTimestamp::  2024-11-30T20:47:15.000000
2024/11/30 12:47:15 
2024/11/30 12:47:15 {17B49E68 $GPRMC,204718.00,A,4526.08543,N,12242.38101,W,0.040,,301124,,,A*68}
2024/11/30 12:47:16 {17B9354A $PUBX,04,204718.00,301124,593237.99,2342,16D,461619,-753.276,21*78}
2024/11/30 12:47:16 PUBX04 gpsUtcOffset:  16D
2024/11/30 12:47:16 gpsTimestamp::  2024-11-30T20:47:34.000000
2024/11/30 12:47:16 utcTimestamp::  2024-11-30T20:47:16.000000
2024/11/30 12:47:16 
2024/11/30 12:47:16 {17D31D73 $GPRMC,204719.00,A,4526.08552,N,12242.38090,W,0.097,,301124,,,A*6A}
2024/11/30 12:47:16 {17D7B443 $PUBX,04,204719.00,301124,593238.99,2342,16D,460866,-753.824,21*7C}
2024/11/30 12:47:16 PUBX04 gpsUtcOffset:  16D
2024/11/30 12:47:16 gpsTimestamp::  2024-11-30T20:47:35.000000
2024/11/30 12:47:16 utcTimestamp::  2024-11-30T20:47:17.000000
2024/11/30 12:47:17 
2024/11/30 12:47:17 {17F195C4 $GPRMC,204720.00,A,4526.08557,N,12242.38080,W,0.065,,301124,,,A*69}
2024/11/30 12:47:18 {17F62C9D $PUBX,04,204720.00,301124,593239.99,2342,16D,460113,-754.254,21*76}
2024/11/30 12:47:18 PUBX04 gpsUtcOffset:  16D
2024/11/30 12:47:18 gpsTimestamp::  2024-11-30T20:47:36.000000
2024/11/30 12:47:18 utcTimestamp::  2024-11-30T20:47:18.000000
2024/11/30 12:47:18 
2024/11/30 12:47:18 {18101F4A $GPRMC,204721.00,A,4526.08561,N,12242.38069,W,0.051,,301124,,,A*6D}
2024/11/30 12:47:18 {1814B663 $PUBX,04,204721.00,301124,593240.99,2342,16D,459359,-753.901,21*73}
2024/11/30 12:47:18 PUBX04 gpsUtcOffset:  16D
2024/11/30 12:47:18 gpsTimestamp::  2024-11-30T20:47:37.000000
2024/11/30 12:47:18 utcTimestamp::  2024-11-30T20:47:19.000000
2024/11/30 12:47:19 
2024/11/30 12:47:19 {182EB032 $GPRMC,204722.00,A,4526.08564,N,12242.38058,W,0.021,,301124,,,A*6E}
2024/11/30 12:47:19 {18334721 $PUBX,04,204722.00,301124,593241.99,2342,16D,458606,-753.670,21*76}
2024/11/30 12:47:19 PUBX04 gpsUtcOffset:  16D
2024/11/30 12:47:19 gpsTimestamp::  2024-11-30T20:47:38.000000
2024/11/30 12:47:19 utcTimestamp::  2024-11-30T20:47:20.000000
2024/11/30 12:47:20 
2024/11/30 12:47:20 {184D2A52 $GPRMC,204723.00,A,4526.08561,N,12242.38053,W,0.056,,301124,,,A*61}
2024/11/30 12:47:21 {1851C136 $PUBX,04,204723.00,301124,593242.99,2342,16D,457852,-753.809,21*74}
2024/11/30 12:47:21 PUBX04 gpsUtcOffset:  16D
2024/11/30 12:47:21 gpsTimestamp::  2024-11-30T20:47:39.000000
2024/11/30 12:47:21 utcTimestamp::  2024-11-30T20:47:21.000000
2024/11/30 12:47:21 
2024/11/30 12:47:21 {186BAE00 $GPRMC,204724.00,A,4526.08561,N,12242.38046,W,0.081,,301124,,,A*68}
2024/11/30 12:47:21 {187044D9 $PUBX,04,204724.00,301124,593243.99,2342,16D,457098,-754.328,21*73}
2024/11/30 12:47:21 PUBX04 gpsUtcOffset:  16D
2024/11/30 12:47:21 gpsTimestamp::  2024-11-30T20:47:40.000000
2024/11/30 12:47:21 utcTimestamp::  2024-11-30T20:47:22.000000
2024/11/30 12:47:22 
2024/11/30 12:47:22 {188A34EF $GPRMC,204725.00,A,4526.08557,N,12242.38042,W,0.079,,301124,,,A*6F}
2024/11/30 12:47:23 {188ECBD2 $PUBX,04,204725.00,301124,593244.99,2342,16D,456343,-754.612,21*7D}
2024/11/30 12:47:23 PUBX04 gpsUtcOffset:  16D
2024/11/30 12:47:23 gpsTimestamp::  2024-11-30T20:47:41.000000
2024/11/30 12:47:23 utcTimestamp::  2024-11-30T20:47:23.000000
2024/11/30 12:47:23 
2024/11/30 12:47:23 {18A8BD01 $GPRMC,204726.00,A,4526.08561,N,12242.38029,W,0.022,,301124,,,A*6A}
2024/11/30 12:47:24 {18AD53DC $PUBX,04,204726.00,301124,593245.99,2342,16D,455589,-754.047,21*7A}
2024/11/30 12:47:24 PUBX04 gpsUtcOffset:  16D
2024/11/30 12:47:24 gpsTimestamp::  2024-11-30T20:47:42.000000
2024/11/30 12:47:24 utcTimestamp::  2024-11-30T20:47:24.000000
2024/11/30 12:47:24 
2024/11/30 12:47:24 {18C73723 $GPRMC,204727.00,A,4526.08561,N,12242.38018,W,0.014,,301124,,,A*6C}
2024/11/30 12:47:25 {18CBCDFA $PUBX,04,204727.00,301124,593246.99,2342,16D,454836,-754.085,21*7E}
2024/11/30 12:47:25 PUBX04 gpsUtcOffset:  16D
2024/11/30 12:47:25 gpsTimestamp::  2024-11-30T20:47:43.000000
2024/11/30 12:47:25 utcTimestamp::  2024-11-30T20:47:25.000000
2024/11/30 12:47:25 
2024/11/30 12:47:25 {18E5C633 $GPRMC,204728.00,A,4526.08561,N,12242.38007,W,0.105,,301124,,,A*6C}
2024/11/30 12:47:26 {18EA5D02 $PUBX,04,204728.00,301124,593247.99,2342,16D,454081,-755.120,21*7B}
2024/11/30 12:47:26 PUBX04 gpsUtcOffset:  16D
2024/11/30 12:47:26 gpsTimestamp::  2024-11-30T20:47:44.000000
2024/11/30 12:47:26 utcTimestamp::  2024-11-30T20:47:26.000000
2024/11/30 12:47:26 
2024/11/30 12:47:26 {19043D2A $GPRMC,204729.00,A,4526.08565,N,12242.37996,W,0.138,,301124,,,A*69}
2024/11/30 12:47:26 {1908D3F8 $PUBX,04,204729.00,301124,593248.99,2342,16D,453326,-755.405,21*7E}
2024/11/30 12:47:26 PUBX04 gpsUtcOffset:  16D
2024/11/30 12:47:26 gpsTimestamp::  2024-11-30T20:47:45.000000
2024/11/30 12:47:26 utcTimestamp::  2024-11-30T20:47:27.000000
2024/11/30 12:47:27 
2024/11/30 12:47:27 {1922CCA0 $GPRMC,204730.00,A,4526.08567,N,12242.37983,W,0.056,,301124,,,A*6E}
2024/11/30 12:47:27 {1927637B $PUBX,04,204730.00,301124,593249.99,2342,16D,452572,-754.791,21*7E}
2024/11/30 12:47:27 PUBX04 gpsUtcOffset:  16D
2024/11/30 12:47:27 gpsTimestamp::  2024-11-30T20:47:46.000000
2024/11/30 12:47:27 utcTimestamp::  2024-11-30T20:47:28.000000
2024/11/30 12:47:28 
2024/11/30 12:47:28 {19413413 $GPRMC,204731.00,A,4526.08565,N,12242.37972,W,0.089,,301124,,,A*61}
2024/11/30 12:47:29 {1945CAE1 $PUBX,04,204731.00,301124,593250.99,2342,16D,451818,-754.604,21*78}
2024/11/30 12:47:29 PUBX04 gpsUtcOffset:  16D
2024/11/30 12:47:29 gpsTimestamp::  2024-11-30T20:47:47.000000
2024/11/30 12:47:29 utcTimestamp::  2024-11-30T20:47:29.000000
2024/11/30 12:47:29 
2024/11/30 12:47:29 {195FDD66 $GPRMC,204732.00,A,4526.08569,N,12242.37961,W,0.142,,301124,,,A*6A}
2024/11/30 12:47:29 {19647440 $PUBX,04,204732.00,301124,593251.99,2342,16D,451063,-755.123,21*7D}
2024/11/30 12:47:29 PUBX04 gpsUtcOffset:  16D
2024/11/30 12:47:29 gpsTimestamp::  2024-11-30T20:47:48.000000
2024/11/30 12:47:29 utcTimestamp::  2024-11-30T20:47:30.000000
2024/11/30 12:47:30 
2024/11/30 12:47:30 {197E655B $GPRMC,204733.00,A,4526.08571,N,12242.37951,W,0.102,,301124,,,A*65}
2024/11/30 12:47:31 {1982FC3E $PUBX,04,204733.00,301124,593252.99,2342,16D,450308,-755.335,21*75}
2024/11/30 12:47:31 PUBX04 gpsUtcOffset:  16D
2024/11/30 12:47:31 gpsTimestamp::  2024-11-30T20:47:49.000000
2024/11/30 12:47:31 utcTimestamp::  2024-11-30T20:47:31.000000
2024/11/30 12:47:31 
2024/11/30 12:47:31 {199CDF99 $GPRMC,204734.00,A,4526.08563,N,12242.37944,W,0.075,,301124,,,A*64}
2024/11/30 12:47:31 {19A17687 $PUBX,04,204734.00,301124,593253.99,2342,16D,449553,-755.274,21*77}
2024/11/30 12:47:31 PUBX04 gpsUtcOffset:  16D
2024/11/30 12:47:31 gpsTimestamp::  2024-11-30T20:47:50.000000
2024/11/30 12:47:31 utcTimestamp::  2024-11-30T20:47:32.000000
2024/11/30 12:47:32 
2024/11/30 12:47:32 {19BB5670 $GPRMC,204735.00,A,4526.08566,N,12242.37932,W,0.022,,301124,,,A*63}
2024/11/30 12:47:32 {19BFED5C $PUBX,04,204735.00,301124,593254.99,2342,16D,448799,-754.966,21*7D}
2024/11/30 12:47:32 PUBX04 gpsUtcOffset:  16D
2024/11/30 12:47:32 gpsTimestamp::  2024-11-30T20:47:51.000000
2024/11/30 12:47:32 utcTimestamp::  2024-11-30T20:47:33.000000
2024/11/30 12:47:33 
2024/11/30 12:47:33 {19D9F147 $GPRMC,204736.00,A,4526.08563,N,12242.37924,W,0.025,,301124,,,A*65}
2024/11/30 12:47:33 {19DE8835 $PUBX,04,204736.00,301124,593255.99,2342,16D,448044,-755.079,21*7E}
2024/11/30 12:47:33 PUBX04 gpsUtcOffset:  16D
2024/11/30 12:47:33 gpsTimestamp::  2024-11-30T20:47:52.000000
2024/11/30 12:47:33 utcTimestamp::  2024-11-30T20:47:34.000000
2024/11/30 12:47:34 
2024/11/30 12:47:34 {19F86A73 $GPRMC,204737.00,A,4526.08562,N,12242.37914,W,0.081,,301124,,,A*68}
2024/11/30 12:47:34 {19FD0156 $PUBX,04,204737.00,301124,593256.99,2342,16D,447289,-755.781,21*70}
2024/11/30 12:47:34 PUBX04 gpsUtcOffset:  16D
2024/11/30 12:47:34 gpsTimestamp::  2024-11-30T20:47:53.000000
2024/11/30 12:47:34 utcTimestamp::  2024-11-30T20:47:35.000000
2024/11/30 12:47:35 
2024/11/30 12:47:35 {1A16F51A $GPRMC,204738.00,A,4526.08559,N,12242.37908,W,0.076,,301124,,,A*6A}
2024/11/30 12:47:35 {1A1B8BF4 $PUBX,04,204738.00,301124,593257.99,2342,16D,446532,-756.174,21*77}
2024/11/30 12:47:35 PUBX04 gpsUtcOffset:  16D
2024/11/30 12:47:35 gpsTimestamp::  2024-11-30T20:47:54.000000
2024/11/30 12:47:35 utcTimestamp::  2024-11-30T20:47:36.000000
2024/11/30 12:47:36 
2024/11/30 12:47:36 {1A3569C3 $GPRMC,204739.00,A,4526.08558,N,12242.37903,W,0.067,,301124,,,A*61}
2024/11/30 12:47:37 {1A3A00BD $PUBX,04,204739.00,301124,593258.99,2342,16D,445777,-755.617,21*78}
2024/11/30 12:47:37 PUBX04 gpsUtcOffset:  16D
2024/11/30 12:47:37 gpsTimestamp::  2024-11-30T20:47:55.000000
2024/11/30 12:47:37 utcTimestamp::  2024-11-30T20:47:37.000000
2024/11/30 12:47:37 
2024/11/30 12:47:37 {1A53F69B $GPRMC,204740.00,A,4526.08552,N,12242.37902,W,0.045,,301124,,,A*64}
2024/11/30 12:47:38 {1A588D92 $PUBX,04,204740.00,301124,593259.99,2342,16D,445021,-755.514,21*73}
2024/11/30 12:47:38 PUBX04 gpsUtcOffset:  16D
2024/11/30 12:47:38 gpsTimestamp::  2024-11-30T20:47:56.000000
2024/11/30 12:47:38 utcTimestamp::  2024-11-30T20:47:38.000000
2024/11/30 12:47:38 
2024/11/30 12:47:38 {1A72707C $GPRMC,204741.00,A,4526.08550,N,12242.37900,W,0.140,,301124,,,A*61}
2024/11/30 12:47:38 {1A770774 $PUBX,04,204741.00,301124,593260.99,2342,16D,444265,-756.358,21*76}
2024/11/30 12:47:38 PUBX04 gpsUtcOffset:  16D
2024/11/30 12:47:38 gpsTimestamp::  2024-11-30T20:47:57.000000
2024/11/30 12:47:38 utcTimestamp::  2024-11-30T20:47:39.000000
2024/11/30 12:47:39 
2024/11/30 12:47:39 {1A90F748 $GPRMC,204742.00,A,4526.08545,N,12242.37895,W,0.056,,301124,,,A*6D}
2024/11/30 12:47:39 {1A958E16 $PUBX,04,204742.00,301124,593261.99,2342,16D,443508,-756.650,21*72}
2024/11/30 12:47:39 PUBX04 gpsUtcOffset:  16D
2024/11/30 12:47:39 gpsTimestamp::  2024-11-30T20:47:58.000000
2024/11/30 12:47:39 utcTimestamp::  2024-11-30T20:47:40.000000
2024/11/30 12:47:40 
2024/11/30 12:47:40 {1AAF7E61 $GPRMC,204743.00,A,4526.08542,N,12242.37891,W,0.017,,301124,,,A*6A}
2024/11/30 12:47:41 {1AB41544 $PUBX,04,204743.00,301124,593262.99,2342,16D,442752,-756.160,21*78}
2024/11/30 12:47:41 PUBX04 gpsUtcOffset:  16D
2024/11/30 12:47:41 gpsTimestamp::  2024-11-30T20:47:59.000000
2024/11/30 12:47:41 utcTimestamp::  2024-11-30T20:47:41.000000
2024/11/30 12:47:41 
2024/11/30 12:47:41 {1ACE0D33 $GPRMC,204744.00,A,4526.08540,N,12242.37885,W,0.004,,301124,,,A*68}
2024/11/30 12:47:41 {1AD2A416 $PUBX,04,204744.00,301124,593263.99,2342,16D,441996,-755.908,21*7E}
2024/11/30 12:47:41 PUBX04 gpsUtcOffset:  16D
2024/11/30 12:47:41 gpsTimestamp::  2024-11-30T20:48:00.000000
2024/11/30 12:47:41 utcTimestamp::  2024-11-30T20:47:42.000000
2024/11/30 12:47:42 
2024/11/30 12:47:42 {1AEC892B $GPRMC,204745.00,A,4526.08534,N,12242.37883,W,0.030,,301124,,,A*6B}
2024/11/30 12:47:43 {1AF1201A $PUBX,04,204745.00,301124,593264.99,2342,16D,441239,-755.984,21*72}
2024/11/30 12:47:43 PUBX04 gpsUtcOffset:  16D
2024/11/30 12:47:43 gpsTimestamp::  2024-11-30T20:48:01.000000
2024/11/30 12:47:43 utcTimestamp::  2024-11-30T20:47:43.000000
2024/11/30 12:47:43 
2024/11/30 12:47:43 {1B0B2233 $GPRMC,204746.00,A,4526.08533,N,12242.37881,W,0.102,,301124,,,A*6D}
2024/11/30 12:47:44 {1B0FB917 $PUBX,04,204746.00,301124,593265.99,2342,16D,440483,-756.521,21*76}
2024/11/30 12:47:44 PUBX04 gpsUtcOffset:  16D
2024/11/30 12:47:44 gpsTimestamp::  2024-11-30T20:48:02.000000
2024/11/30 12:47:44 utcTimestamp::  2024-11-30T20:47:44.000000
2024/11/30 12:47:44 
2024/11/30 12:47:44 {1B299E7F $GPRMC,204747.00,A,4526.08530,N,12242.37881,W,0.082,,301124,,,A*66}
2024/11/30 12:47:44 {1B2E354B $PUBX,04,204747.00,301124,593266.99,2342,16D,439726,-756.856,21*7B}
2024/11/30 12:47:44 PUBX04 gpsUtcOffset:  16D
2024/11/30 12:47:44 gpsTimestamp::  2024-11-30T20:48:03.000000
2024/11/30 12:47:44 utcTimestamp::  2024-11-30T20:47:45.000000
2024/11/30 12:47:45 
2024/11/30 12:47:45 {1B482340 $GPRMC,204748.00,A,4526.08530,N,12242.37879,W,0.068,,301124,,,A*6A}
2024/11/30 12:47:46 {1B4CBA26 $PUBX,04,204748.00,301124,593267.99,2342,16D,438969,-756.327,21*7C}
2024/11/30 12:47:46 PUBX04 gpsUtcOffset:  16D
2024/11/30 12:47:46 gpsTimestamp::  2024-11-30T20:48:04.000000
2024/11/30 12:47:46 utcTimestamp::  2024-11-30T20:47:46.000000
2024/11/30 12:47:46 
2024/11/30 12:47:46 {1B66950A $GPRMC,204749.00,A,4526.08527,N,12242.37877,W,0.032,,301124,,,A*6C}
2024/11/30 12:47:47 {1B6B2BE4 $PUBX,04,204749.00,301124,593268.99,2342,16D,438213,-756.295,21*7C}
2024/11/30 12:47:47 PUBX04 gpsUtcOffset:  16D
2024/11/30 12:47:47 gpsTimestamp::  2024-11-30T20:48:05.000000
2024/11/30 12:47:47 utcTimestamp::  2024-11-30T20:47:47.000000
2024/11/30 12:47:47 
2024/11/30 12:47:47 {1B8530BF $GPRMC,204750.00,A,4526.08527,N,12242.37874,W,0.131,,301124,,,A*65}
2024/11/30 12:47:48 {1B89C7B7 $PUBX,04,204750.00,301124,593269.99,2342,16D,437456,-757.307,21*76}
2024/11/30 12:47:48 PUBX04 gpsUtcOffset:  16D
2024/11/30 12:47:48 gpsTimestamp::  2024-11-30T20:48:06.000000
2024/11/30 12:47:48 utcTimestamp::  2024-11-30T20:47:48.000000
2024/11/30 12:47:48 
2024/11/30 12:47:48 {1BA3B25F $GPRMC,204751.00,A,4526.08528,N,12242.37869,W,0.129,,301124,,,A*6E}
2024/11/30 12:47:49 {1BA8493B $PUBX,04,204751.00,301124,593270.99,2342,16D,436699,-757.580,21*76}
2024/11/30 12:47:49 PUBX04 gpsUtcOffset:  16D
2024/11/30 12:47:49 gpsTimestamp::  2024-11-30T20:48:07.000000
2024/11/30 12:47:49 utcTimestamp::  2024-11-30T20:47:49.000000
2024/11/30 12:47:49 
2024/11/30 12:47:49 {1BC23460 $GPRMC,204752.00,A,4526.08530,N,12242.37863,W,0.024,,301124,,,A*62}
2024/11/30 12:47:49 {1BC6CB43 $PUBX,04,204752.00,301124,593271.99,2342,16D,435942,-757.028,21*79}
2024/11/30 12:47:49 PUBX04 gpsUtcOffset:  16D
2024/11/30 12:47:49 gpsTimestamp::  2024-11-30T20:48:08.000000
2024/11/30 12:47:49 utcTimestamp::  2024-11-30T20:47:50.000000
2024/11/30 12:47:50 
2024/11/30 12:47:50 {1BE09892 $GPRMC,204753.00,A,4526.08528,N,12242.37859,W,0.035,,301124,,,A*63}
2024/11/30 12:47:51 {1BE52F95 $PUBX,04,204753.00,301124,593272.99,2342,16D,435185,-756.887,21*74}
2024/11/30 12:47:51 PUBX04 gpsUtcOffset:  16D
2024/11/30 12:47:51 gpsTimestamp::  2024-11-30T20:48:09.000000
2024/11/30 12:47:51 utcTimestamp::  2024-11-30T20:47:51.000000
2024/11/30 12:47:51 
2024/11/30 12:47:51 {1BFF3CF6 $GPRMC,204754.00,A,4526.08524,N,12242.37855,W,0.035,,301124,,,A*64}
2024/11/30 12:47:52 {1C03D3DA $PUBX,04,204754.00,301124,593273.99,2342,16D,434427,-757.334,21*7C}
2024/11/30 12:47:52 PUBX04 gpsUtcOffset:  16D
2024/11/30 12:47:52 gpsTimestamp::  2024-11-30T20:48:10.000000
2024/11/30 12:47:52 utcTimestamp::  2024-11-30T20:47:52.000000
2024/11/30 12:47:52 
2024/11/30 12:47:52 {1C1DB4E7 $GPRMC,204755.00,A,4526.08522,N,12242.37851,W,0.062,,301124,,,A*65}
2024/11/30 12:47:52 {1C224BC2 $PUBX,04,204755.00,301124,593274.99,2342,16D,433670,-757.632,21*7E}
2024/11/30 12:47:52 PUBX04 gpsUtcOffset:  16D
2024/11/30 12:47:52 gpsTimestamp::  2024-11-30T20:48:11.000000
2024/11/30 12:47:52 utcTimestamp::  2024-11-30T20:47:53.000000
2024/11/30 12:47:53 
2024/11/30 12:47:53 {1C3C47CA $GPRMC,204756.00,A,4526.08520,N,12242.37847,W,0.021,,301124,,,A*64}
2024/11/30 12:47:53 {1C40DED7 $PUBX,04,204756.00,301124,593275.99,2342,16D,432912,-757.435,21*73}
2024/11/30 12:47:53 PUBX04 gpsUtcOffset:  16D
2024/11/30 12:47:53 gpsTimestamp::  2024-11-30T20:48:12.000000
2024/11/30 12:47:53 utcTimestamp::  2024-11-30T20:47:54.000000
2024/11/30 12:47:54 
2024/11/30 12:47:54 {1C5AC209 $GPRMC,204757.00,A,4526.08516,N,12242.37840,W,0.069,,301124,,,A*6B}
2024/11/30 12:47:54 {1C5F58F7 $PUBX,04,204757.00,301124,593276.99,2342,16D,432155,-757.125,21*7E}
2024/11/30 12:47:54 PUBX04 gpsUtcOffset:  16D
2024/11/30 12:47:54 gpsTimestamp::  2024-11-30T20:48:13.000000
2024/11/30 12:47:54 utcTimestamp::  2024-11-30T20:47:55.000000
2024/11/30 12:47:55 
2024/11/30 12:47:55 {1C795213 $GPRMC,204758.00,A,4526.08515,N,12242.37834,W,0.021,,301124,,,A*68}
2024/11/30 12:47:55 {1C7DE90C $PUBX,04,204758.00,301124,593277.99,2342,16D,431398,-757.220,21*76}
2024/11/30 12:47:55 PUBX04 gpsUtcOffset:  16D
2024/11/30 12:47:55 gpsTimestamp::  2024-11-30T20:48:14.000000
2024/11/30 12:47:55 utcTimestamp::  2024-11-30T20:47:56.000000
2024/11/30 12:47:56 
2024/11/30 12:47:56 {1C97CAF6 $GPRMC,204759.00,A,4526.08515,N,12242.37827,W,0.088,,301124,,,A*68}
2024/11/30 12:47:57 {1C9C61E4 $PUBX,04,204759.00,301124,593278.99,2342,16D,430641,-757.883,21*7B}
2024/11/30 12:47:57 PUBX04 gpsUtcOffset:  16D
2024/11/30 12:47:57 gpsTimestamp::  2024-11-30T20:48:15.000000
2024/11/30 12:47:57 utcTimestamp::  2024-11-30T20:47:57.000000
2024/11/30 12:47:57 
2024/11/30 12:47:57 {1CB65560 $GPRMC,204800.00,A,4526.08519,N,12242.37817,W,0.068,,301124,,,A*6A}
2024/11/30 12:47:57 {1CBAEC44 $PUBX,04,204800.00,301124,593279.99,2342,16D,429883,-758.293,21*75}
2024/11/30 12:47:57 PUBX04 gpsUtcOffset:  16D
2024/11/30 12:47:57 gpsTimestamp::  2024-11-30T20:48:16.000000
2024/11/30 12:47:57 utcTimestamp::  2024-11-30T20:47:58.000000
2024/11/30 12:47:58 
2024/11/30 12:47:58 {1CD4E8F3 $GPRMC,204801.00,A,4526.08519,N,12242.37809,W,0.086,,301124,,,A*64}
2024/11/30 12:47:58 {1CD97FF7 $PUBX,04,204801.00,301124,593280.99,2342,16D,429125,-757.677,21*76}
2024/11/30 12:47:58 PUBX04 gpsUtcOffset:  16D
2024/11/30 12:47:58 gpsTimestamp::  2024-11-30T20:48:17.000000
2024/11/30 12:47:58 utcTimestamp::  2024-11-30T20:47:59.000000
2024/11/30 12:47:59 
2024/11/30 12:47:59 {1CF381E6 $GPRMC,204802.00,A,4526.08523,N,12242.37802,W,0.026,,301124,,,A*6F}
2024/11/30 12:48:00 {1CF818D6 $PUBX,04,204802.00,301124,593281.99,2342,16D,428368,-757.672,21*7B}
2024/11/30 12:48:00 PUBX04 gpsUtcOffset:  16D
2024/11/30 12:48:00 gpsTimestamp::  2024-11-30T20:48:18.000000
2024/11/30 12:48:00 utcTimestamp::  2024-11-30T20:48:00.000000
2024/11/30 12:48:00 
2024/11/30 12:48:00 {1D11DAD9 $GPRMC,204803.00,A,4526.08528,N,12242.37794,W,0.105,,301124,,,A*65}
2024/11/30 12:48:00 {1D1671C7 $PUBX,04,204803.00,301124,593282.99,2342,16D,427610,-758.585,21*78}
2024/11/30 12:48:00 PUBX04 gpsUtcOffset:  16D
2024/11/30 12:48:00 gpsTimestamp::  2024-11-30T20:48:19.000000
2024/11/30 12:48:00 utcTimestamp::  2024-11-30T20:48:01.000000
2024/11/30 12:48:01 
2024/11/30 12:48:01 {1D3073B6 $GPRMC,204804.00,A,4526.08535,N,12242.37784,W,0.061,,301124,,,A*6C}
2024/11/30 12:48:01 {1D350AA5 $PUBX,04,204804.00,301124,593283.99,2342,16D,426852,-758.691,21*71}
2024/11/30 12:48:01 PUBX04 gpsUtcOffset:  16D
2024/11/30 12:48:01 gpsTimestamp::  2024-11-30T20:48:20.000000
2024/11/30 12:48:01 utcTimestamp::  2024-11-30T20:48:02.000000
2024/11/30 12:48:02 
2024/11/30 12:48:02 {1D4EE9CE $GPRMC,204805.00,A,4526.08543,N,12242.37774,W,0.048,,301124,,,A*68}
2024/11/30 12:48:02 {1D5380BC $PUBX,04,204805.00,301124,593284.99,2342,16D,426095,-758.153,21*7D}
2024/11/30 12:48:02 PUBX04 gpsUtcOffset:  16D
2024/11/30 12:48:02 gpsTimestamp::  2024-11-30T20:48:21.000000
2024/11/30 12:48:02 utcTimestamp::  2024-11-30T20:48:03.000000
2024/11/30 12:48:03 
2024/11/30 12:48:03 {1D6D755E $GPRMC,204806.00,A,4526.08553,N,12242.37764,W,0.032,,301124,,,A*66}
2024/11/30 12:48:03 {1D720C37 $PUBX,04,204806.00,301124,593285.99,2342,16D,425338,-758.024,21*79}
2024/11/30 12:48:03 PUBX04 gpsUtcOffset:  16D
2024/11/30 12:48:03 gpsTimestamp::  2024-11-30T20:48:22.000000
2024/11/30 12:48:03 utcTimestamp::  2024-11-30T20:48:04.000000
2024/11/30 12:48:04 
2024/11/30 12:48:04 {1D8BEFC6 $GPRMC,204807.00,A,4526.08565,N,12242.37750,W,0.044,,301124,,,A*64}
2024/11/30 12:48:05 {1D9086B4 $PUBX,04,204807.00,301124,593286.99,2342,16D,424581,-758.129,21*72}
2024/11/30 12:48:05 PUBX04 gpsUtcOffset:  16D
2024/11/30 12:48:05 gpsTimestamp::  2024-11-30T20:48:23.000000
2024/11/30 12:48:05 utcTimestamp::  2024-11-30T20:48:05.000000
2024/11/30 12:48:05 
2024/11/30 12:48:05 {1DAA7EB6 $GPRMC,204808.00,A,4526.08574,N,12242.37739,W,0.099,,301124,,,A*64}
2024/11/30 12:48:06 {1DAF1597 $PUBX,04,204808.00,301124,593287.99,2342,16D,423823,-758.587,21*7E}
2024/11/30 12:48:06 PUBX04 gpsUtcOffset:  16D
2024/11/30 12:48:06 gpsTimestamp::  2024-11-30T20:48:24.000000
2024/11/30 12:48:06 utcTimestamp::  2024-11-30T20:48:06.000000
2024/11/30 12:48:06 
2024/11/30 12:48:06 {1DC90487 $GPRMC,204809.00,A,4526.08582,N,12242.37729,W,0.055,,301124,,,A*6D}
2024/11/30 12:48:06 {1DCD9B6C $PUBX,04,204809.00,301124,593288.99,2342,16D,423065,-758.838,21*73}
2024/11/30 12:48:06 PUBX04 gpsUtcOffset:  16D
2024/11/30 12:48:06 gpsTimestamp::  2024-11-30T20:48:25.000000
2024/11/30 12:48:06 utcTimestamp::  2024-11-30T20:48:07.000000
2024/11/30 12:48:07 
2024/11/30 12:48:07 {1DE796F5 $GPRMC,204810.00,A,4526.08593,N,12242.37716,W,0.028,,301124,,,A*63}
2024/11/30 12:48:07 {1DEC2DD7 $PUBX,04,204810.00,301124,593289.99,2342,16D,422307,-758.347,21*7F}
2024/11/30 12:48:07 PUBX04 gpsUtcOffset:  16D
2024/11/30 12:48:07 gpsTimestamp::  2024-11-30T20:48:26.000000
2024/11/30 12:48:07 utcTimestamp::  2024-11-30T20:48:08.000000
2024/11/30 12:48:08 
2024/11/30 12:48:08 {1E05FD0A $GPRMC,204811.00,A,4526.08606,N,12242.37706,W,0.034,,301124,,,A*61}
2024/11/30 12:48:09 {1E0A93E5 $PUBX,04,204811.00,301124,593290.99,2342,16D,421550,-758.420,21*77}
2024/11/30 12:48:09 PUBX04 gpsUtcOffset:  16D
2024/11/30 12:48:09 gpsTimestamp::  2024-11-30T20:48:27.000000
2024/11/30 12:48:09 utcTimestamp::  2024-11-30T20:48:09.000000
2024/11/30 12:48:09 
2024/11/30 12:48:09 {1E249673 $GPRMC,204812.00,A,4526.08616,N,12242.37698,W,0.127,,301124,,,A*66}
2024/11/30 12:48:10 {1E292D54 $PUBX,04,204812.00,301124,593291.99,2342,16D,420791,-759.318,21*76}
2024/11/30 12:48:10 PUBX04 gpsUtcOffset:  16D
2024/11/30 12:48:10 gpsTimestamp::  2024-11-30T20:48:28.000000
2024/11/30 12:48:10 utcTimestamp::  2024-11-30T20:48:10.000000
2024/11/30 12:48:10 
2024/11/30 12:48:10 {1E430A0B $GPRMC,204813.00,A,4526.08634,N,12242.37682,W,0.052,,301124,,,A*6F}
2024/11/30 12:48:10 {1E47A0EF $PUBX,04,204813.00,301124,593292.99,2342,16D,420033,-759.516,21*73}
2024/11/30 12:48:10 PUBX04 gpsUtcOffset:  16D
2024/11/30 12:48:10 gpsTimestamp::  2024-11-30T20:48:29.000000
2024/11/30 12:48:10 utcTimestamp::  2024-11-30T20:48:11.000000
2024/11/30 12:48:11 
2024/11/30 12:48:11 {1E61A3AF $GPRMC,204814.00,A,4526.08653,N,12242.37668,W,0.081,,301124,,,A*63}
2024/11/30 12:48:11 {1E663A9F $PUBX,04,204814.00,301124,593293.99,2342,16D,419275,-759.013,21*7F}
2024/11/30 12:48:11 PUBX04 gpsUtcOffset:  16D
2024/11/30 12:48:11 gpsTimestamp::  2024-11-30T20:48:30.000000
2024/11/30 12:48:11 utcTimestamp::  2024-11-30T20:48:12.000000
2024/11/30 12:48:12 
2024/11/30 12:48:12 {1E802B12 $GPRMC,204815.00,A,4526.08672,N,12242.37655,W,0.035,,301124,,,A*60}
2024/11/30 12:48:13 {1E84C20A $PUBX,04,204815.00,301124,593294.99,2342,16D,418518,-758.923,21*7F}
2024/11/30 12:48:13 PUBX04 gpsUtcOffset:  16D
2024/11/30 12:48:13 gpsTimestamp::  2024-11-30T20:48:31.000000
2024/11/30 12:48:13 utcTimestamp::  2024-11-30T20:48:13.000000
2024/11/30 12:48:13 
2024/11/30 12:48:13 {1E9EA787 $GPRMC,204816.00,A,4526.08686,N,12242.37645,W,0.112,,301124,,,A*6D}
2024/11/30 12:48:14 {1EA33E77 $PUBX,04,204816.00,301124,593295.99,2342,16D,417759,-759.319,21*77}
2024/11/30 12:48:14 PUBX04 gpsUtcOffset:  16D
2024/11/30 12:48:14 gpsTimestamp::  2024-11-30T20:48:32.000000
2024/11/30 12:48:14 utcTimestamp::  2024-11-30T20:48:14.000000
2024/11/30 12:48:14 
2024/11/30 12:48:14 {1EBD2004 $GPRMC,204817.00,A,4526.08704,N,12242.37634,W,0.080,,301124,,,A*6B}
2024/11/30 12:48:15 {1EC1B6FE $PUBX,04,204817.00,301124,593296.99,2342,16D,417001,-759.402,21*72}
2024/11/30 12:48:15 PUBX04 gpsUtcOffset:  16D
2024/11/30 12:48:15 gpsTimestamp::  2024-11-30T20:48:33.000000
2024/11/30 12:48:15 utcTimestamp::  2024-11-30T20:48:15.000000
2024/11/30 12:48:15 
2024/11/30 12:48:15 {1EDBB684 $GPRMC,204818.00,A,4526.08723,N,12242.37621,W,0.078,,301124,,,A*62}
2024/11/30 12:48:16 {1EE04D7B $PUBX,04,204818.00,301124,593297.99,2342,16D,416243,-759.365,21*7F}
2024/11/30 12:48:16 PUBX04 gpsUtcOffset:  16D
2024/11/30 12:48:16 gpsTimestamp::  2024-11-30T20:48:34.000000
2024/11/30 12:48:16 utcTimestamp::  2024-11-30T20:48:16.000000
2024/11/30 12:48:16 
2024/11/30 12:48:16 {1EFA2D64 $GPRMC,204819.00,A,4526.08739,N,12242.37610,W,0.021,,301124,,,A*66}
2024/11/30 12:48:17 {1EFEC448 $PUBX,04,204819.00,301124,593298.99,2342,16D,415485,-759.147,21*7C}
2024/11/30 12:48:17 PUBX04 gpsUtcOffset:  16D
2024/11/30 12:48:17 gpsTimestamp::  2024-11-30T20:48:35.000000
2024/11/30 12:48:17 utcTimestamp::  2024-11-30T20:48:17.000000
2024/11/30 12:48:17 
2024/11/30 12:48:17 {1F18C0A4 $GPRMC,204820.00,A,4526.08752,N,12242.37600,W,0.029,,301124,,,A*68}
2024/11/30 12:48:17 {1F1D577E $PUBX,04,204820.00,301124,593299.99,2342,16D,414726,-759.189,21*7E}
2024/11/30 12:48:17 PUBX04 gpsUtcOffset:  16D
2024/11/30 12:48:17 gpsTimestamp::  2024-11-30T20:48:36.000000
2024/11/30 12:48:17 utcTimestamp::  2024-11-30T20:48:18.000000
2024/11/30 12:48:18 
2024/11/30 12:48:18 {1F373076 $GPRMC,204821.00,A,4526.08767,N,12242.37586,W,0.298,,301124,,,A*6A}
2024/11/30 12:48:19 {1F3BC76F $PUBX,04,204821.00,301124,593300.99,2342,16D,413967,-759.802,21*78}
2024/11/30 12:48:19 PUBX04 gpsUtcOffset:  16D
2024/11/30 12:48:19 gpsTimestamp::  2024-11-30T20:48:37.000000
2024/11/30 12:48:19 utcTimestamp::  2024-11-30T20:48:19.000000
2024/11/30 12:48:19 
2024/11/30 12:48:19 {1F55B189 $GPRMC,204822.00,A,4526.08786,N,12242.37570,W,0.229,,301124,,,A*65}
2024/11/30 12:48:19 {1F5A4876 $PUBX,04,204822.00,301124,593301.99,2342,16D,413208,-759.915,21*7F}
2024/11/30 12:48:19 PUBX04 gpsUtcOffset:  16D
2024/11/30 12:48:19 gpsTimestamp::  2024-11-30T20:48:38.000000
2024/11/30 12:48:19 utcTimestamp::  2024-11-30T20:48:20.000000
2024/11/30 12:48:20 
2024/11/30 12:48:20 {1F74369E $GPRMC,204823.00,A,4526.08803,N,12242.37554,W,0.092,,301124,,,A*62}
2024/11/30 12:48:21 {1F78CD74 $PUBX,04,204823.00,301124,593302.99,2342,16D,412450,-759.558,21*72}
2024/11/30 12:48:21 PUBX04 gpsUtcOffset:  16D
2024/11/30 12:48:21 gpsTimestamp::  2024-11-30T20:48:39.000000
2024/11/30 12:48:21 utcTimestamp::  2024-11-30T20:48:21.000000
2024/11/30 12:48:21 
2024/11/30 12:48:21 {1F92C877 $GPRMC,204824.00,A,4526.08827,N,12242.37536,W,0.189,,301124,,,A*6C}
2024/11/30 12:48:22 {1F975F66 $PUBX,04,204824.00,301124,593303.99,2342,16D,411692,-759.444,21*77}
2024/11/30 12:48:22 PUBX04 gpsUtcOffset:  16D
2024/11/30 12:48:22 gpsTimestamp::  2024-11-30T20:48:40.000000
2024/11/30 12:48:22 utcTimestamp::  2024-11-30T20:48:22.000000
2024/11/30 12:48:22 
2024/11/30 12:48:22 {1FB1598A $GPRMC,204825.00,A,4526.08857,N,12242.37512,W,0.416,,301124,,,A*6F}
2024/11/30 12:48:23 {1FB5F06E $PUBX,04,204825.00,301124,593304.99,2342,16D,410934,-759.554,21*73}
2024/11/30 12:48:23 PUBX04 gpsUtcOffset:  16D
2024/11/30 12:48:23 gpsTimestamp::  2024-11-30T20:48:41.000000
2024/11/30 12:48:23 utcTimestamp::  2024-11-30T20:48:23.000000
2024/11/30 12:48:23 
2024/11/30 12:48:23 {1FCFDC50 $GPRMC,204826.00,A,4526.08885,N,12242.37489,W,0.460,,301124,,,A*61}
2024/11/30 12:48:23 {1FD47329 $PUBX,04,204826.00,301124,593305.99,2342,16D,410176,-759.419,21*77}
2024/11/30 12:48:23 PUBX04 gpsUtcOffset:  16D
2024/11/30 12:48:23 gpsTimestamp::  2024-11-30T20:48:42.000000
2024/11/30 12:48:23 utcTimestamp::  2024-11-30T20:48:24.000000
2024/11/30 12:48:24 
2024/11/30 12:48:24 {1FEE4DCE $GPRMC,204827.00,A,4526.08910,N,12242.37470,W,0.410,,301124,,,A*6C}
2024/11/30 12:48:25 {1FF2E49E $PUBX,04,204827.00,301124,593306.99,2342,16D,409418,-759.310,21*7E}
2024/11/30 12:48:25 PUBX04 gpsUtcOffset:  16D
2024/11/30 12:48:25 gpsTimestamp::  2024-11-30T20:48:43.000000
2024/11/30 12:48:25 utcTimestamp::  2024-11-30T20:48:25.000000
2024/11/30 12:48:25 
2024/11/30 12:48:25 {200CDDC7 $GPRMC,204828.00,A,4526.08933,N,12242.37452,W,0.343,,301124,,,A*63}
2024/11/30 12:48:25 {201174B5 $PUBX,04,204828.00,301124,593307.99,2342,16D,408660,-759.128,21*75}
2024/11/30 12:48:25 PUBX04 gpsUtcOffset:  16D
2024/11/30 12:48:25 gpsTimestamp::  2024-11-30T20:48:44.000000
2024/11/30 12:48:25 utcTimestamp::  2024-11-30T20:48:26.000000
2024/11/30 12:48:26 
2024/11/30 12:48:26 {202B5267 $GPRMC,204829.00,A,4526.08951,N,12242.37437,W,0.439,,301124,,,A*6F}
2024/11/30 12:48:26 {202FE94A $PUBX,04,204829.00,301124,593308.99,2342,16D,407901,-759.148,21*7A}
2024/11/30 12:48:26 PUBX04 gpsUtcOffset:  16D
2024/11/30 12:48:26 gpsTimestamp::  2024-11-30T20:48:45.000000
2024/11/30 12:48:26 utcTimestamp::  2024-11-30T20:48:27.000000
2024/11/30 12:48:27 
2024/11/30 12:48:27 {2049F6F8 $GPRMC,204830.00,A,4526.08988,N,12242.37408,W,0.686,,301124,,,A*69}
2024/11/30 12:48:27 {204E8DDA $PUBX,04,204830.00,301124,593309.99,2342,16D,407144,-759.308,21*7C}
2024/11/30 12:48:27 PUBX04 gpsUtcOffset:  16D
2024/11/30 12:48:27 gpsTimestamp::  2024-11-30T20:48:46.000000
2024/11/30 12:48:27 utcTimestamp::  2024-11-30T20:48:28.000000
2024/11/30 12:48:28 
2024/11/30 12:48:28 {20686265 $GPRMC,204831.00,A,4526.09012,N,12242.37388,W,0.689,,301124,,,A*63}
2024/11/30 12:48:28 {206CF947 $PUBX,04,204831.00,301124,593310.99,2342,16D,406385,-759.427,21*71}
2024/11/30 12:48:28 PUBX04 gpsUtcOffset:  16D
2024/11/30 12:48:28 gpsTimestamp::  2024-11-30T20:48:47.000000
2024/11/30 12:48:28 utcTimestamp::  2024-11-30T20:48:29.000000
2024/11/30 12:48:29 
2024/11/30 12:48:29 {2086FD19 $GPRMC,204832.00,A,4526.09028,N,12242.37376,W,0.490,,301124,,,A*62}
2024/11/30 12:48:29 {208B93F4 $PUBX,04,204832.00,301124,593311.99,2342,16D,405626,-759.245,21*7E}
2024/11/30 12:48:29 PUBX04 gpsUtcOffset:  16D
2024/11/30 12:48:29 gpsTimestamp::  2024-11-30T20:48:48.000000
2024/11/30 12:48:29 utcTimestamp::  2024-11-30T20:48:30.000000
2024/11/30 12:48:30 
2024/11/30 12:48:30 {20A5722D $GPRMC,204833.00,A,4526.09047,N,12242.37364,W,0.553,,301124,,,A*67}
2024/11/30 12:48:30 {20AA091B $PUBX,04,204833.00,301124,593312.99,2342,16D,404867,-759.239,21*7D}
2024/11/30 12:48:30 PUBX04 gpsUtcOffset:  16D
2024/11/30 12:48:30 gpsTimestamp::  2024-11-30T20:48:49.000000
2024/11/30 12:48:30 utcTimestamp::  2024-11-30T20:48:31.000000
2024/11/30 12:48:31 
2024/11/30 12:48:31 {20C401CF $GPRMC,204834.00,A,4526.09089,N,12242.37338,W,0.970,,301124,,,A*66}
2024/11/30 12:48:31 {20C898C8 $PUBX,04,204834.00,301124,593313.99,2342,16D,404109,-759.483,21*7D}
2024/11/30 12:48:31 PUBX04 gpsUtcOffset:  16D
2024/11/30 12:48:31 gpsTimestamp::  2024-11-30T20:48:50.000000
2024/11/30 12:48:31 utcTimestamp::  2024-11-30T20:48:32.000000
2024/11/30 12:48:32 
2024/11/30 12:48:32 {20E277A9 $GPRMC,204835.00,A,4526.09135,N,12242.37305,W,0.939,,301124,,,A*62}
2024/11/30 12:48:33 {20E70E97 $PUBX,04,204835.00,301124,593314.99,2342,16D,403352,-759.403,21*78}
2024/11/30 12:48:33 PUBX04 gpsUtcOffset:  16D
2024/11/30 12:48:33 gpsTimestamp::  2024-11-30T20:48:51.000000
2024/11/30 12:48:33 utcTimestamp::  2024-11-30T20:48:33.000000
2024/11/30 12:48:33 
2024/11/30 12:48:33 {210104D7 $GPRMC,204836.00,A,4526.09166,N,12242.37290,W,0.789,,301124,,,A*6F}
2024/11/30 12:48:34 {21059BCD $PUBX,04,204836.00,301124,593315.99,2342,16D,402593,-759.169,21*79}
2024/11/30 12:48:34 PUBX04 gpsUtcOffset:  16D
2024/11/30 12:48:34 gpsTimestamp::  2024-11-30T20:48:52.000000
2024/11/30 12:48:34 utcTimestamp::  2024-11-30T20:48:34.000000
2024/11/30 12:48:34 
2024/11/30 12:48:34 {211F7A59 $GPRMC,204837.00,A,4526.09204,N,12242.37267,W,0.902,,301124,,,A*6C}
2024/11/30 12:48:34 {2124114A $PUBX,04,204837.00,301124,593316.99,2342,16D,401835,-759.035,21*71}
2024/11/30 12:48:34 PUBX04 gpsUtcOffset:  16D
2024/11/30 12:48:34 gpsTimestamp::  2024-11-30T20:48:53.000000
2024/11/30 12:48:34 utcTimestamp::  2024-11-30T20:48:35.000000
2024/11/30 12:48:35 
2024/11/30 12:48:35 {213E0E77 $GPRMC,204838.00,A,4526.09162,N,12242.37299,W,0.723,,301124,,,A*6C}
2024/11/30 12:48:36 {2142A54F $PUBX,04,204838.00,301124,593317.99,2342,16D,401070,-759.652,21*71}
2024/11/30 12:48:36 PUBX04 gpsUtcOffset:  16D
2024/11/30 12:48:36 gpsTimestamp::  2024-11-30T20:48:54.000000
2024/11/30 12:48:36 utcTimestamp::  2024-11-30T20:48:36.000000
2024/11/30 12:48:36 
2024/11/30 12:48:36 {215C915F $GPRMC,204839.00,A,4526.09187,N,12242.37281,W,0.798,,301124,,,A*6F}
2024/11/30 12:48:37 {2161284E $PUBX,04,204839.00,301124,593318.99,2342,16D,400311,-759.763,21*79}
2024/11/30 12:48:37 PUBX04 gpsUtcOffset:  16D
2024/11/30 12:48:37 gpsTimestamp::  2024-11-30T20:48:55.000000
2024/11/30 12:48:37 utcTimestamp::  2024-11-30T20:48:37.000000
2024/11/30 12:48:37 
2024/11/30 12:48:37 {217B1040 $GPRMC,204840.00,A,4526.09188,N,12242.37278,W,0.648,,301124,,,A*64}
2024/11/30 12:48:38 {217FA738 $PUBX,04,204840.00,301124,593319.99,2342,16D,399550,-759.921,21*7A}
2024/11/30 12:48:38 PUBX04 gpsUtcOffset:  16D
2024/11/30 12:48:38 gpsTimestamp::  2024-11-30T20:48:56.000000
2024/11/30 12:48:38 utcTimestamp::  2024-11-30T20:48:38.000000
2024/11/30 12:48:38 
2024/11/30 12:48:38 {21999A57 $GPRMC,204841.00,A,4526.09202,N,12242.37270,W,0.546,,301124,,,A*61}
2024/11/30 12:48:38 {219E3146 $PUBX,04,204841.00,301124,593320.99,2342,16D,398789,-759.773,21*7F}
2024/11/30 12:48:38 PUBX04 gpsUtcOffset:  16D
2024/11/30 12:48:38 gpsTimestamp::  2024-11-30T20:48:57.000000
2024/11/30 12:48:38 utcTimestamp::  2024-11-30T20:48:39.000000
2024/11/30 12:48:39 
2024/11/30 12:48:39 {21B823F1 $GPRMC,204842.00,A,4526.09213,N,12242.37270,W,0.580,,301124,,,A*68}
2024/11/30 12:48:40 {21BCBAD5 $PUBX,04,204842.00,301124,593321.99,2342,16D,398029,-759.819,21*73}
2024/11/30 12:48:40 PUBX04 gpsUtcOffset:  16D
2024/11/30 12:48:40 gpsTimestamp::  2024-11-30T20:48:58.000000
2024/11/30 12:48:40 utcTimestamp::  2024-11-30T20:48:40.000000
2024/11/30 12:48:40 
2024/11/30 12:48:40 {21D69B45 $GPRMC,204843.00,A,4526.09248,N,12242.37248,W,0.939,,301124,,,A*62}
2024/11/30 12:48:40 {21DB321E $PUBX,04,204843.00,301124,593322.99,2342,16D,397270,-760.151,21*7F}
2024/11/30 12:48:40 PUBX04 gpsUtcOffset:  16D
2024/11/30 12:48:40 gpsTimestamp::  2024-11-30T20:48:59.000000
2024/11/30 12:48:40 utcTimestamp::  2024-11-30T20:48:41.000000
2024/11/30 12:48:41 
2024/11/30 12:48:41 {21F53296 $GPRMC,204844.00,A,4526.09282,N,12242.37226,W,0.969,,301124,,,A*6E}
2024/11/30 12:48:41 {21F9C990 $PUBX,04,204844.00,301124,593323.99,2342,16D,396511,-760.227,21*7A}
2024/11/30 12:48:41 PUBX04 gpsUtcOffset:  16D
2024/11/30 12:48:41 gpsTimestamp::  2024-11-30T20:49:00.000000
2024/11/30 12:48:41 utcTimestamp::  2024-11-30T20:48:42.000000
2024/11/30 12:48:42 
2024/11/30 12:48:42 {2213B9C4 $GPRMC,204845.00,A,4526.09300,N,12242.37216,W,0.788,,301124,,,A*66}
2024/11/30 12:48:42 {221850B3 $PUBX,04,204845.00,301124,593324.99,2342,16D,395750,-759.935,21*7A}
2024/11/30 12:48:42 PUBX04 gpsUtcOffset:  16D
2024/11/30 12:48:42 gpsTimestamp::  2024-11-30T20:49:01.000000
2024/11/30 12:48:42 utcTimestamp::  2024-11-30T20:48:43.000000
2024/11/30 12:48:43 
2024/11/30 12:48:43 {22323552 $GPRMC,204846.00,A,4526.09312,N,12242.37208,W,0.773,,301124,,,A*6D}
