First line of the IotaGFTapp log file
{07574E87 $GPDTM,W84,,0.0,N,0.0,E,0.0,W84*6F}*4C
{07587358 $GPRMC,144109.00,A,4526.08486,N,12242.38396,W,0.633,,251124,,,A*6B}*34
{075A9D76 $GPGGA,144109.00,4526.08486,N,12242.38396,W,1,07,1.45,161.2,M,-21.2,M,,*6F}*38
{075D0A5E $PUBX,04,144109.00,251124,139268.99,2342,18,-545453,-792.361,21*15}*4E
{MODE TimeValid PPS}*35
{07742573 P}*71
{07759D27 $GPDTM,W84,,0.0,N,0.0,E,0.0,W84*6F}*4A
{0776C20D $GPRMC,144110.00,A,4526.08473,N,12242.38427,W,0.223,,251124,,,A*61}*4D
{0778EC00 $GPGGA,144110.00,4526.08473,N,12242.38427,W,1,06,1.72,160.7,M,-21.2,M,,*61}*40
{077B58FB $PUBX,04,144110.00,251124,139269.99,2342,18,-546246,-792.076,21*18}*42
{MODE TimeValid PPS}*35
{0792A9EB P}*05
{079440A2 $GPDTM,W84,,0.0,N,0.0,E,0.0,W84*6F}*4A
{0795657D $GPRMC,144111.00,A,4526.08470,N,12242.38446,W,0.126,,251124,,,A*62}*35
{07978F9A $GPGGA,144111.00,4526.08470,N,12242.38446,W,1,06,1.72,160.4,M,-21.2,M,,*67}*41
{0799FC60 $PUBX,04,144111.00,251124,139270.99,2342,18,-547038,-791.906,21*16}*3D
{MODE TimeValid PPS}*35
{07B12E63 P}*70
{07B2AFA2 $GPDTM,W84,,0.0,N,0.0,E,0.0,W84*6F}*34
{07B3D474 $GPRMC,144112.00,A,4526.08466,N,12242.38443,W,0.074,,251124,,,A*65}*4B
{07B5FE91 $GPGGA,144112.00,4526.08466,N,12242.38443,W,1,06,1.72,160.2,M,-21.2,M,,*60}*35
{07B86B62 $PUBX,04,144112.00,251124,139271.99,2342,18,-547831,-792.116,21*1F}*4D
{MODE TimeValid PPS}*35
{07CFB2DA P}*01
{07D15EDB $GPDTM,W84,,0.0,N,0.0,E,0.0,W84*6F}*33
{07D283AC $GPRMC,144113.00,A,4526.08463,N,12242.38451,W,0.054,,251124,,,A*60}*36
{07D4ADB5 $GPGGA,144113.00,4526.08463,N,12242.38451,W,1,06,1.72,159.9,M,-21.2,M,,*66}*4B
{07D71A87 $PUBX,04,144113.00,251124,139272.99,2342,18,-548624,-792.188,21*1F}*4B
{MODE TimeValid PPS}*35
{07EE3753 P}*73
{07EFC007 $GPDTM,W84,,0.0,N,0.0,E,0.0,W84*6F}*47
{07F0E4D9 $GPRMC,144114.00,A,4526.08468,N,12242.38450,W,0.279,,251124,,,A*60}*33
{07F30EEC $GPGGA,144114.00,4526.08468,N,12242.38450,W,1,06,1.72,159.5,M,-21.2,M,,*67}*4F
{07F57BC7 $PUBX,04,144114.00,251124,139273.99,2342,18,-549416,-792.135,21*1D}*35
{MODE TimeValid PPS}*35
{080CBBCB P}*0C
{080E4CD9 $GPDTM,W84,,0.0,N,0.0,E,0.0,W84*6F}*40
{080F7196 $GPRMC,144115.00,A,4526.08466,N,12242.38450,W,0.353,,251124,,,A*66}*39
{08119BB3 $GPGGA,144115.00,4526.08466,N,12242.38450,W,1,06,1.72,158.9,M,-21.2,M,,*65}*4C
{08140883 $PUBX,04,144115.00,251124,139274.99,2342,18,-550210,-792.112,21*16}*37
{MODE TimeValid PPS}*35
{082B4043 P}*0D
{082CCDC1 $GPDTM,W84,,0.0,N,0.0,E,0.0,W84*6F}*3B
{082DF292 $GPRMC,144116.00,A,4526.08458,N,12242.38454,W,0.195,,251124,,,A*64}*4F
{08301CA6 $GPGGA,144116.00,4526.08458,N,12242.38454,W,1,06,1.72,158.6,M,-21.2,M,,*60}*40
{08328981 $PUBX,04,144116.00,251124,139275.99,2342,18,-551003,-792.106,21*10}*38
{MODE TimeValid PPS}*35
{0849C4BB P}*04
{084B5584 $GPDTM,W84,,0.0,N,0.0,E,0.0,W84*6F}*45
{084C7A56 $GPRMC,144117.00,A,4526.08454,N,12242.38453,W,0.138,,251124,,,A*69}*44
{084EA45E $GPGGA,144117.00,4526.08454,N,12242.38453,W,1,06,1.72,158.4,M,-21.2,M,,*68}*32
{0851112F $PUBX,04,144117.00,251124,139276.99,2342,18,-551795,-792.131,21*1E}*3A
{MODE TimeValid PPS}*35
{08684933 P}*7D
{0869D833 $GPDTM,W84,,0.0,N,0.0,E,0.0,W84*6F}*4C
{086AFD0E $GPRMC,144118.00,A,4526.08439,N,12242.38452,W,0.281,,251124,,,A*6D}*3F
{086D2722 $GPGGA,144118.00,4526.08439,N,12242.38452,W,1,06,1.72,158.1,M,-21.2,M,,*68}*31
{086F93E8 $PUBX,04,144118.00,251124,139277.99,2342,18,-552588,-792.233,21*1C}*49
{MODE TimeValid PPS}*35
{0886CDAB P}*74
{0888703B $GPDTM,W84,,0.0,N,0.0,E,0.0,W84*6F}*49
{08899500 $GPRMC,144119.00,A,4526.08454,N,12242.38463,W,0.193,,251124,,,A*65}*4B
{088BBF1D $GPGGA,144119.00,4526.08454,N,12242.38463,W,1,06,1.72,157.9,M,-21.2,M,,*67}*4D
{088E2BEE $PUBX,04,144119.00,251124,139278.99,2342,18,-553380,-792.054,21*1E}*47
{MODE TimeValid PPS}*35
{08A55224 P}*0B
{08A6DCC6 $GPDTM,W84,,0.0,N,0.0,E,0.0,W84*6F}*3A
{08A801A2 $GPRMC,144120.00,A,4526.08456,N,12242.38461,W,0.167,,251124,,,A*64}*4D
{08AA2BAB $GPGGA,144120.00,4526.08456,N,12242.38461,W,1,06,1.72,157.5,M,-21.2,M,,*61}*35
{08AC9886 $PUBX,04,144120.00,251124,139279.99,2342,18,-554173,-792.036,21*18}*3C
{MODE TimeValid PPS}*35
{08C3D69C P}*06
{08C55EB6 $GPDTM,W84,,0.0,N,0.0,E,0.0,W84*6F}*4D
{08C6839D $GPRMC,144121.00,A,4526.08459,N,12242.38454,W,0.111,,251124,,,A*6D}*3C
{08C8AD90 $GPGGA,144121.00,4526.08459,N,12242.38454,W,1,06,1.72,157.3,M,-21.2,M,,*6F}*48
{08CB1A8C $PUBX,04,144121.00,251124,139280.99,2342,18,-554966,-792.140,21*13}*3B
{MODE TimeValid PPS}*35
{08E25B14 P}*7B
{08E3E820 $GPDTM,W84,,0.0,N,0.0,E,0.0,W84*6F}*36
{08E50CF1 $GPRMC,144122.00,A,4526.08460,N,12242.38460,W,0.103,,251124,,,A*60}*32
{08E736F9 $GPGGA,144122.00,4526.08460,N,12242.38460,W,1,06,1.72,157.0,M,-21.2,M,,*62}*4E
{08E9A3E9 $PUBX,04,144122.00,251124,139281.99,2342,18,-555758,-792.093,21*1C}*3C
{MODE TimeValid PPS}*35
{0900DF8C P}*06
{0902769F $GPDTM,W84,,0.0,N,0.0,E,0.0,W84*6F}*42
{09039B85 $GPRMC,144123.00,A,4526.08460,N,12242.38475,W,0.168,,251124,,,A*68}*32
{0905C579 $GPGGA,144123.00,4526.08460,N,12242.38475,W,1,06,1.72,156.5,M,-21.2,M,,*63}*3A
{0908324A $PUBX,04,144123.00,251124,139282.99,2342,18,-556551,-791.954,21*17}*4C
{MODE TimeValid PPS}*35
{091F6405 P}*0F
{0920E73A $GPDTM,W84,,0.0,N,0.0,E,0.0,W84*6F}*3C
{09220C02 $GPRMC,144124.00,A,4526.08458,N,12242.38477,W,0.111,,251124,,,A*68}*36
{09243620 $GPGGA,144124.00,4526.08458,N,12242.38477,W,1,06,1.72,156.3,M,-21.2,M,,*6B}*3F
{0926A2E7 $PUBX,04,144124.00,251124,139283.99,2342,18,-557343,-791.940,21*10}*35
{MODE TimeValid PPS}*35
{093DE87D P}*06
{093F7F41 $GPDTM,W84,,0.0,N,0.0,E,0.0,W84*6F}*3F
{0940A413 $GPRMC,144125.00,A,4526.08456,N,12242.38485,W,0.111,,251124,,,A*6A}*4F
{0942CE1C $GPGGA,144125.00,4526.08456,N,12242.38485,W,1,06,1.72,156.1,M,-21.2,M,,*6B}*4C
{09453AEE $PUBX,04,144125.00,251124,139284.99,2342,18,-558136,-791.922,21*1D}*3A
{MODE TimeValid PPS}*35
{095C6CF5 P}*0F
{095DEEF9 $GPDTM,W84,,0.0,N,0.0,E,0.0,W84*6F}*30
{095F13D6 $GPRMC,144126.00,A,4526.08453,N,12242.38489,W,0.135,,251124,,,A*66}*44
{09613DDD $GPGGA,144126.00,4526.08453,N,12242.38489,W,1,06,1.72,155.9,M,-21.2,M,,*6A}*4C
{0963AAA4 $PUBX,04,144126.00,251124,139285.99,2342,18,-558928,-792.034,21*15}*40
{MODE TimeValid PPS}*35
{097AF16D P}*0C
{097C8ABC $GPDTM,W84,,0.0,N,0.0,E,0.0,W84*6F}*32
{097DAF96 $GPRMC,144127.00,A,4526.08450,N,12242.38484,W,0.123,,251124,,,A*6E}*47
{097FD997 $GPGGA,144127.00,4526.08450,N,12242.38484,W,1,06,1.72,155.9,M,-21.2,M,,*65}*45
{09824671 $PUBX,04,144127.00,251124,139286.99,2342,18,-559720,-792.156,21*15}*3E
{MODE TimeValid PPS}*35
{099975E6 P}*0E
{099AF0F6 $GPDTM,W84,,0.0,N,0.0,E,0.0,W84*6F}*40
{099C15DC $GPRMC,144128.00,A,4526.08445,N,12242.38485,W,0.099,,251124,,,A*64}*3E
{099E3FCF $GPGGA,144128.00,4526.08445,N,12242.38485,W,1,06,1.72,155.7,M,-21.2,M,,*61}*4B
{09A0AC95 $PUBX,04,144128.00,251124,139287.99,2342,18,-560513,-792.050,21*14}*4F
{MODE TimeValid PPS}*35
{09B7FA5E P}*7D
{09B98BC6 $GPDTM,W84,,0.0,N,0.0,E,0.0,W84*6F}*4A
{09BAB0AD $GPRMC,144129.00,A,4526.08444,N,12242.38483,W,0.124,,251124,,,A*65}*33
{09BCDACA $GPGGA,144129.00,4526.08444,N,12242.38483,W,1,06,1.72,155.5,M,-21.2,M,,*65}*41
{09BF478F $PUBX,04,144129.00,251124,139288.99,2342,18,-561305,-792.013,21*1D}*30
{MODE TimeValid PPS}*35
{09D67ED6 P}*0D
{09D81343 $GPDTM,W84,,0.0,N,0.0,E,0.0,W84*6F}*47
{09D9382A $GPRMC,144130.00,A,4526.08446,N,12242.38494,W,0.096,,251124,,,A*61}*42
{09DB6231 $GPGGA,144130.00,4526.08446,N,12242.38494,W,1,06,1.72,155.1,M,-21.2,M,,*6D}*3E
{09DDCF01 $PUBX,04,144130.00,251124,139289.99,2342,18,-562098,-792.024,21*14}*34
{MODE TimeValid PPS}*35
{09F5034E P}*7E
{09F6A17B $GPDTM,W84,,0.0,N,0.0,E,0.0,W84*6F}*4B
{09F7C656 $GPRMC,144131.00,A,4526.08440,N,12242.38512,W,0.109,,251124,,,A*6E}*3B
{09F9F06B $GPGGA,144131.00,4526.08440,N,12242.38512,W,1,06,1.72,154.5,M,-21.2,M,,*60}*3A
{09FC5D30 $PUBX,04,144131.00,251124,139290.99,2342,18,-562891,-791.935,21*16}*47
{MODE TimeValid PPS}*35
{0A1387C6 P}*7F
{0A150721 $GPDTM,W84,,0.0,N,0.0,E,0.0,W84*6F}*46
{0A162BF2 $GPRMC,144132.00,A,4526.08427,N,12242.38522,W,0.064,,251124,,,A*65}*3C
{0A1855FB $GPGGA,144132.00,4526.08427,N,12242.38522,W,1,06,1.72,154.0,M,-21.2,M,,*64}*32
{0A1AC2C1 $PUBX,04,144132.00,251124,139291.99,2342,18,-563684,-791.956,21*1A}*40
{MODE TimeValid PPS}*35
{0A320C3F P}*00
{0A33A64C $GPDTM,W84,,0.0,N,0.0,E,0.0,W84*6F}*46
{0A34CB32 $GPRMC,144133.00,A,4526.08402,N,12242.38550,W,0.093,,251124,,,A*6E}*43
{0A36F526 $GPGGA,144133.00,4526.08402,N,12242.38550,W,1,06,1.72,153.6,M,-21.2,M,,*66}*4D
{0A39620C $PUBX,04,144133.00,251124,139292.99,2342,18,-564476,-791.867,21*13}*35
{MODE TimeValid PPS}*35
{0A5090B8 P}*71
{0A521E60 $GPDTM,W84,,0.0,N,0.0,E,0.0,W84*6F}*33
{0A534347 $GPRMC,144134.00,A,4526.08380,N,12242.38588,W,0.234,,251124,,,A*6E}*46
{0A556D65 $GPGGA,144134.00,4526.08380,N,12242.38588,W,1,06,1.72,153.0,M,-21.2,M,,*6F}*37
{0A57DA2C $PUBX,04,144134.00,251124,139293.99,2342,18,-565268,-791.783,21*18}*3E
{MODE TimeValid PPS}*35
{0A6F1530 P}*70
{0A70C264 $GPDTM,W84,,0.0,N,0.0,E,0.0,W84*6F}*32
{0A71E73E $GPRMC,144135.00,A,4526.08351,N,12242.38645,W,0.521,,251124,,,A*62}*3D
{0A741149 $GPGGA,144135.00,4526.08351,N,12242.38645,W,1,06,1.72,152.1,M,-21.2,M,,*60}*31
{0A767E17 $PUBX,04,144135.00,251124,139294.99,2342,18,-566061,-791.705,21*18}*3D
{MODE TimeValid PPS}*35
{0A8D99A8 P}*02
{0A8F2BDB $GPDTM,W84,,0.0,N,0.0,E,0.0,W84*6F}*4E
{0A9050C2 $GPRMC,144136.00,A,4526.08332,N,12242.38664,W,0.408,,251124,,,A*6D}*3B
{0A927ACB $GPGGA,144136.00,4526.08332,N,12242.38664,W,1,06,1.72,151.4,M,-21.2,M,,*63}*43
{0A94E799 $PUBX,04,144136.00,251124,139295.99,2342,18,-566855,-791.927,21*1B}*4E
{MODE TimeValid PPS}*35
{0AAC1E20 P}*73
{0AADC888 $GPDTM,W84,,0.0,N,0.0,E,0.0,W84*6F}*38
{0AAEED62 $GPRMC,144137.00,A,4526.08325,N,12242.38595,W,0.365,,251124,,,A*6B}*47
{0AB11776 $GPGGA,144137.00,4526.08325,N,12242.38595,W,1,07,1.45,155.9,M,-21.2,M,,*65}*4B
{0AB3843C $PUBX,04,144137.00,251124,139296.99,2342,18,-567635,-791.712,21*18}*45
{MODE TimeValid PPS}*35
{0ACAA299 P}*76
{0ACC42FE $GPDTM,W84,,0.0,N,0.0,E,0.0,W84*6F}*43
{0ACD67D8 $GPRMC,144138.00,A,4526.08318,N,12242.38510,W,0.132,,251124,,,A*67}*45
{0ACF91ED $GPGGA,144138.00,4526.08318,N,12242.38510,W,1,07,1.45,159.7,M,-21.2,M,,*6B}*4A
{0AD1FEBD $PUBX,04,144138.00,251124,139297.99,2342,18,-568417,-791.713,21*1A}*43
{MODE TimeValid PPS}*35
{0AE92711 P}*7E
{0AEAB84C $GPDTM,W84,,0.0,N,0.0,E,0.0,W84*6F}*4F
{0AEBDD3B $GPRMC,144139.00,A,4526.08300,N,12242.38464,W,0.255,,251124,,,A*6F}*30
{0AEE074F $GPGGA,144139.00,4526.08300,N,12242.38464,W,1,07,1.45,162.4,M,-21.2,M,,*6A}*31
{0AF07416 $PUBX,04,144139.00,251124,139298.99,2342,18,-569202,-791.725,21*12}*3A
{MODE TimeValid PPS}*35
{0B07AB89 P}*01
{0B094C57 $GPDTM,W84,,0.0,N,0.0,E,0.0,W84*6F}*39
{0B0A713D $GPRMC,144140.00,A,4526.08270,N,12242.38417,W,0.446,,251124,,,A*67}*3C
{0B0C9B5B $GPGGA,144140.00,4526.08270,N,12242.38417,W,1,07,1.45,164.8,M,-21.2,M,,*6C}*3C
{0B0F0838 $PUBX,04,144140.00,251124,139299.99,2342,18,-569987,-791.749,21*11}*3E
{MODE TimeValid PPS}*35
{0B263002 P}*01
{0B27DCD3 $GPDTM,W84,,0.0,N,0.0,E,0.0,W84*6F}*30
{0B2901AF $GPRMC,144141.00,A,4526.08278,N,12242.38337,W,0.154,,251124,,,A*6D}*48
{0B2B2BCD $GPGGA,144141.00,4526.08278,N,12242.38337,W,1,07,1.45,167.8,M,-21.2,M,,*63}*3B
{0B2D9893 $PUBX,04,144141.00,251124,139300.99,2342,18,-570772,-791.815,21*1B}*4F
{MODE TimeValid PPS}*35
{0B44B47B P}*07
{0B465367 $GPDTM,W84,,0.0,N,0.0,E,0.0,W84*6F}*40
{0B47784E $GPRMC,144142.00,A,4526.08256,N,12242.38256,W,0.515,,251124,,,A*65}*41
{0B49A255 $GPGGA,144142.00,4526.08256,N,12242.38256,W,1,07,1.45,170.1,M,-21.2,M,,*65}*42
{0B4C0F1A $PUBX,04,144142.00,251124,139301.99,2342,18,-571558,-791.996,21*18}*3A
{MODE TimeValid PPS}*35
{0B6338F3 P}*7F
{0B64F026 $GPDTM,W84,,0.0,N,0.0,E,0.0,W84*6F}*35
{0B6614E2 $GPRMC,144143.00,A,4526.08226,N,12242.38254,W,0.237,,251124,,,A*66}*4E
{0B683EEA $GPGGA,144143.00,4526.08226,N,12242.38254,W,1,07,1.45,171.7,M,-21.2,M,,*66}*40
{0B6AABC5 $PUBX,04,144143.00,251124,139302.99,2342,18,-572345,-791.779,21*1C}*36
{MODE TimeValid PPS}*35
{0B81BD6C P}*7E
{0B834BFC $GPDTM,W84,,0.0,N,0.0,E,0.0,W84*6F}*3D
{0B8470CE $GPRMC,144144.00,A,4526.08205,N,12242.38269,W,0.242,,251124,,,A*6C}*4E
{0B869AD6 $GPGGA,144144.00,4526.08205,N,12242.38269,W,1,06,1.72,171.4,M,-21.2,M,,*68}*38
{0B890790 $PUBX,04,144144.00,251124,139303.99,2342,18,-573138,-791.758,21*10}*44
{MODE TimeValid PPS}*35
{0BA041E4 P}*01
{0BA1E3F8 $GPDTM,W84,,0.0,N,0.0,E,0.0,W84*6F}*3D
{0BA308C0 $GPRMC,144145.00,A,4526.08174,N,12242.38329,W,0.161,,251124,,,A*6F}*4C
{0BA532C9 $GPGGA,144145.00,4526.08174,N,12242.38329,W,1,06,1.72,171.3,M,-21.2,M,,*6E}*48
{0BA79F98 $PUBX,04,144145.00,251124,139304.99,2342,18,-573928,-791.495,21*1D}*3A
{MODE TimeValid PPS}*35
{0BBEC65D P}*07
{0BC051A5 $GPDTM,W84,,0.0,N,0.0,E,0.0,W84*6F}*46
{0BC17695 $GPRMC,144146.00,A,4526.08132,N,12242.38369,W,0.345,,251124,,,A*6E}*38
{0BC3A0AA $GPGGA,144146.00,4526.08132,N,12242.38369,W,1,06,1.72,170.9,M,-21.2,M,,*60}*3D
{0BC60D6E $PUBX,04,144146.00,251124,139305.99,2342,18,-574720,-791.410,21*13}*39
{MODE TimeValid PPS}*35
{0BDD4AD6 P}*03
{0BDEDBD4 $GPDTM,W84,,0.0,N,0.0,E,0.0,W84*6F}*32
{0BE000B1 $GPRMC,144147.00,A,4526.08108,N,12242.38393,W,0.161,,251124,,,A*67}*3A
{0BE22ABA $GPGGA,144147.00,4526.08108,N,12242.38393,W,1,06,1.72,170.8,M,-21.2,M,,*6C}*44
{0BE49773 $PUBX,04,144147.00,251124,139306.99,2342,18,-575512,-791.391,21*1D}*49
{MODE TimeValid PPS}*35
{0BFBCF4E P}*74
{0BFD5253 $GPDTM,W84,,0.0,N,0.0,E,0.0,W84*6F}*46
{0BFE772D $GPRMC,144148.00,A,4526.08071,N,12242.38466,W,0.598,,251124,,,A*68}*49
{0C00A142 $GPGGA,144148.00,4526.08071,N,12242.38466,W,1,06,1.72,170.9,M,-21.2,M,,*60}*4B
{0C030DF2 $PUBX,04,144148.00,251124,139307.99,2342,18,-576302,-791.324,21*19}*49
{MODE TimeValid PPS}*35
{0C1A53C7 P}*07
{0C1BD3C3 $GPDTM,W84,,0.0,N,0.0,E,0.0,W84*6F}*30
{0C1CF8AA $GPRMC,144149.00,A,4526.08085,N,12242.38440,W,0.309,,251124,,,A*68}*31
{0C1F22BD $GPGGA,144149.00,4526.08085,N,12242.38440,W,1,05,1.95,171.0,M,-21.2,M,,*6C}*33
{0C218F8C $PUBX,04,144149.00,251124,139308.99,2342,18,-577094,-791.547,21*19}*4C
{MODE TimeValid PPS}*35
{0C38D83F P}*07
{0C3A4047 $GPDTM,W84,,0.0,N,0.0,E,0.0,W84*6F}*31
{0C3B6537 $GPRMC,144150.00,A,4526.08071,N,12242.38459,W,0.238,,251124,,,A*60}*4B
{0C3D8F2A $GPGGA,144150.00,4526.08071,N,12242.38459,W,1,05,1.95,170.9,M,-21.2,M,,*6F}*3E
{0C3FFC06 $PUBX,04,144150.00,251124,139309.99,2342,18,-577886,-791.470,21*1E}*47
{MODE TimeValid PPS}*35
{0C575CB8 P}*0B
{0C58E38D $GPDTM,W84,,0.0,N,0.0,E,0.0,W84*6F}*43
{0C5A086A $GPRMC,144151.00,A,4526.08062,N,12242.38501,W,0.387,,251124,,,A*6A}*4D
{0C5C3273 $GPGGA,144151.00,4526.08062,N,12242.38501,W,1,05,1.95,170.8,M,-21.2,M,,*61}*4E
{0C5E9F56 $PUBX,04,144151.00,251124,139310.99,2342,18,-578677,-791.275,21*1B}*3F
{MODE TimeValid PPS}*35
{0C75E130 P}*70
{0C775B5C $GPDTM,W84,,0.0,N,0.0,E,0.0,W84*6F}*45
{0C788042 $GPRMC,144152.00,A,4526.08050,N,12242.38562,W,0.594,,251124,,,A*69}*3C
{0C7AAA4A $GPGGA,144152.00,4526.08050,N,12242.38562,W,1,05,1.95,170.8,M,-21.2,M,,*66}*3E
{0C7D170F $PUBX,04,144152.00,251124,139311.99,2342,18,-579467,-791.012,21*18}*49
{MODE TimeValid PPS}*35
{0C9465A9 P}*73
{0C95F7A6 $GPDTM,W84,,0.0,N,0.0,E,0.0,W84*6F}*4E
{0C971C83 $GPRMC,144153.00,A,4526.08051,N,12242.38583,W,0.557,,251124,,,A*69}*4A
{0C994676 $GPGGA,144153.00,4526.08051,N,12242.38583,W,1,05,1.95,170.4,M,-21.2,M,,*65}*3E
{0C9BB351 $PUBX,04,144153.00,251124,139312.99,2342,18,-580260,-791.062,21*1A}*3F
{MODE TimeValid PPS}*35
{0CB2EA21 P}*72
{0CB46AD0 $GPDTM,W84,,0.0,N,0.0,E,0.0,W84*6F}*31
{0CB58F96 $GPRMC,144154.00,A,4526.08069,N,12242.38544,W,0.236,,251124,,,A*6E}*40
{0CB7B9C0 $GPGGA,144154.00,4526.08069,N,12242.38544,W,1,05,1.95,170.1,M,-21.2,M,,*67}*40
{0CBA266F $PUBX,04,144154.00,251124,139313.99,2342,18,-581054,-791.405,21*1D}*44
{MODE TimeValid PPS}*35
{0CD16E9A P}*7B
{0CD301BD $GPDTM,W84,,0.0,N,0.0,E,0.0,W84*6F}*34
{0CD42697 $GPRMC,144155.00,A,4526.08042,N,12242.38585,W,0.406,,251124,,,A*6E}*3C
{0CD650AC $GPGGA,144155.00,4526.08042,N,12242.38585,W,1,05,1.95,169.8,M,-21.2,M,,*63}*48
{0CD8BD51 $PUBX,04,144155.00,251124,139314.99,2342,18,-581845,-791.303,21*12}*34
{MODE TimeValid PPS}*35
{0CEFF312 P}*70
{0CF17CFA $GPDTM,W84,,0.0,N,0.0,E,0.0,W84*6F}*40
{0CF2A1CC $GPRMC,144156.00,A,4526.08034,N,12242.38557,W,0.225,,251124,,,A*64}*39
{0CF4CBE9 $GPGGA,144156.00,4526.08034,N,12242.38557,W,1,05,1.95,170.0,M,-21.2,M,,*6E}*49
{0CF738BB $PUBX,04,144156.00,251124,139315.99,2342,18,-582637,-791.470,21*1B}*49
{MODE TimeValid PPS}*35
{0D0E778A P}*0E
{0D100202 $GPDTM,W84,,0.0,N,0.0,E,0.0,W84*6F}*42
{0D1126DC $GPRMC,144157.00,A,4526.08056,N,12242.38480,W,0.067,,251124,,,A*6E}*42
{0D1350DC $GPGGA,144157.00,4526.08056,N,12242.38480,W,1,05,1.95,169.9,M,-21.2,M,,*61}*3A
{0D15BDAB $PUBX,04,144157.00,251124,139316.99,2342,18,-583431,-791.907,21*11}*4C
{MODE TimeValid PPS}*35
{0D2CFC02 P}*74
{0D2E8A0E $GPDTM,W84,,0.0,N,0.0,E,0.0,W84*6F}*38
{0D2FAEE8 $GPRMC,144158.00,A,4526.08152,N,12242.38319,W,0.467,,251124,,,A*67}*37
{0D31D8E7 $GPGGA,144158.00,4526.08152,N,12242.38319,W,1,06,1.72,170.9,M,-21.2,M,,*6E}*4D
{0D3445C2 $PUBX,04,144158.00,251124,139317.99,2342,18,-584224,-792.100,21*16}*3A
{MODE TimeValid PPS}*35
{0D4B807B P}*09
{0D4D10EB $GPDTM,W84,,0.0,N,0.0,E,0.0,W84*6F}*35
{0D4E35DB $GPRMC,144159.00,A,4526.08203,N,12242.38211,W,0.762,,251124,,,A*6E}*30
{0D505FE4 $GPGGA,144159.00,4526.08203,N,12242.38211,W,1,06,1.72,171.3,M,-21.2,M,,*6A}*46
{0D52CCAB $PUBX,04,144159.00,251124,139318.99,2342,18,-585017,-792.109,21*12}*49
{MODE TimeValid PPS}*35
{0D6A04F4 P}*03
{0D6B8E8E $GPDTM,W84,,0.0,N,0.0,E,0.0,W84*6F}*37
{0D6CB360 $GPRMC,144200.00,A,4526.08234,N,12242.38172,W,0.700,,251124,,,A*67}*38
{0D6EDD7C $GPGGA,144200.00,4526.08234,N,12242.38172,W,1,06,1.72,171.6,M,-21.2,M,,*62}*3D
{0D714A4D $PUBX,04,144200.00,251124,139319.99,2342,18,-585809,-791.892,21*13}*4E
{MODE TimeValid PPS}*35
{0D88896D P}*71
{0D8A56DA $GPDTM,W84,,0.0,N,0.0,E,0.0,W84*6F}*3C
{0D8B7BC1 $GPRMC,144201.00,A,4526.08252,N,12242.38112,W,0.716,,251124,,,A*67}*47
{0D8DA5B4 $GPGGA,144201.00,4526.08252,N,12242.38112,W,1,06,1.72,171.7,M,-21.2,M,,*64}*44
{0D9012AF $PUBX,04,144201.00,251124,139320.99,2342,18,-586602,-791.998,21*15}*40
{MODE TimeValid PPS}*35
{0DA70DE5 P}*70
{0DA8A3D4 $GPDTM,W84,,0.0,N,0.0,E,0.0,W84*6F}*38
{0DA9C8A6 $GPRMC,144202.00,A,4526.08266,N,12242.38076,W,0.625,,251124,,,A*61}*4E
{0DABF2AD $GPGGA,144202.00,4526.08266,N,12242.38076,W,1,06,1.72,172.0,M,-21.2,M,,*67}*48
{0DAE5F87 $PUBX,04,144202.00,251124,139321.99,2342,18,-587394,-791.990,21*14}*35
{MODE TimeValid PPS}*35
{0DC5925E P}*0F
{0DC716A8 $GPDTM,W84,,0.0,N,0.0,E,0.0,W84*6F}*49
{0DC83B7A $GPRMC,144203.00,A,4526.08275,N,12242.38031,W,0.597,,251124,,,A*6B}*3F
{0DCA6583 $GPGGA,144203.00,4526.08275,N,12242.38031,W,1,05,2.48,172.0,M,-21.2,M,,*6E}*4B
{0DCCD273 $PUBX,04,144203.00,251124,139322.99,2342,18,-588187,-792.113,21*19}*3F
{MODE TimeValid PPS}*35
{0DE416D7 P}*07
{0DE59BB7 $GPDTM,W84,,0.0,N,0.0,E,0.0,W84*6F}*3D
{0DE6C09E $GPRMC,144204.00,A,4526.08275,N,12242.38001,W,0.523,,251124,,,A*60}*46
{0DE8EABB $GPGGA,144204.00,4526.08275,N,12242.38001,W,1,05,2.48,172.1,M,-21.2,M,,*6B}*3A
{0DEB5781 $PUBX,04,144204.00,251124,139323.99,2342,18,-588980,-792.020,21*11}*41
{MODE TimeValid PPS}*35
{0E029B4F P}*08
{0E04241B $GPDTM,W84,,0.0,N,0.0,E,0.0,W84*6F}*33
{0E0548ED $GPRMC,144205.00,A,4526.08285,N,12242.37992,W,0.448,,251124,,,A*6E}*48
{0E07730A $GPGGA,144205.00,4526.08285,N,12242.37992,W,1,05,2.48,172.4,M,-21.2,M,,*6C}*36
{0E09DFDA $PUBX,04,144205.00,251124,139324.99,2342,18,-589771,-791.795,21*1C}*3D
{MODE TimeValid PPS}*35
{0E211FC8 P}*0C
{0E229A65 $GPDTM,W84,,0.0,N,0.0,E,0.0,W84*6F}*39
{0E23BF40 $GPRMC,144206.00,A,4526.08275,N,12242.37977,W,0.214,,251124,,,A*66}*3A
{0E25E93F $GPGGA,144206.00,4526.08275,N,12242.37977,W,1,05,2.49,172.5,M,-21.2,M,,*6B}*4C
{0E28561A $PUBX,04,144206.00,251124,139325.99,2342,18,-590563,-791.838,21*1F}*4C
{MODE TimeValid PPS}*35
{0E3FA440 P}*07
{0E413411 $GPDTM,W84,,0.0,N,0.0,E,0.0,W84*6F}*40
{0E4258F8 $GPRMC,144207.00,A,4526.08261,N,12242.37954,W,0.114,,251124,,,A*60}*4E
{0E4482EA $GPGGA,144207.00,4526.08261,N,12242.37954,W,1,05,2.49,172.4,M,-21.2,M,,*6F}*4C
{0E46EFCF $PUBX,04,144207.00,251124,139326.99,2342,18,-591356,-791.937,21*12}*48
{MODE TimeValid PPS}*35
{0E5E28B9 P}*02
{0E5F905D $GPDTM,W84,,0.0,N,0.0,E,0.0,W84*6F}*49
{0E60B537 $GPRMC,144208.00,A,4526.08282,N,12242.37928,W,0.503,,251124,,,A*6B}*37
{0E62DF41 $GPGGA,144208.00,4526.08282,N,12242.37928,W,1,05,2.49,172.8,M,-21.2,M,,*6A}*43
{0E654C13 $PUBX,04,144208.00,251124,139327.99,2342,18,-592147,-791.836,21*1D}*43
{MODE TimeValid PPS}*35
{0E7CAD31 P}*70
{0E7E3E7B $GPDTM,W84,,0.0,N,0.0,E,0.0,W84*6F}*33
{0E7F634C $GPRMC,144209.00,A,4526.08288,N,12242.37908,W,0.522,,251124,,,A*61}*38
{0E818D54 $GPGGA,144209.00,4526.08288,N,12242.37908,W,1,05,2.49,173.0,M,-21.2,M,,*6A}*34
{0E83FA45 $PUBX,04,144209.00,251124,139328.99,2342,18,-592939,-791.763,21*1D}*38
{MODE TimeValid PPS}*35
{0E9B31AA P}*7A
{0E9CAE6E $GPDTM,W84,,0.0,N,0.0,E,0.0,W84*6F}*4F
{0E9DD355 $GPRMC,144210.00,A,4526.08276,N,12242.37888,W,0.319,,251124,,,A*6F}*48
{0E9FFD73 $GPGGA,144210.00,4526.08276,N,12242.37888,W,1,05,2.49,172.9,M,-21.2,M,,*62}*42
{0EA26A44 $PUBX,04,144210.00,251124,139329.99,2342,18,-593732,-791.875,21*18}*48
{MODE TimeValid PPS}*35
{0EB9B622 P}*0C
{0EBB507B $GPDTM,W84,,0.0,N,0.0,E,0.0,W84*6F}*32
{0EBC7569 $GPRMC,144211.00,A,4526.08250,N,12242.37871,W,0.246,,251124,,,A*67}*37
{0EBE9F72 $GPGGA,144211.00,4526.08250,N,12242.37871,W,1,05,2.49,172.6,M,-21.2,M,,*6E}*3D
{0EC10C44 $PUBX,04,144211.00,251124,139330.99,2342,18,-594525,-792.033,21*1B}*34
{MODE TimeValid PPS}*35
{0ED83A9A P}*75
{0ED9BF13 $GPDTM,W84,,0.0,N,0.0,E,0.0,W84*6F}*39
{0EDAE3E5 $GPRMC,144212.00,A,4526.08237,N,12242.37859,W,0.234,,251124,,,A*6A}*43
{0EDD0E0F $GPGGA,144212.00,4526.08237,N,12242.37859,W,1,05,2.49,172.7,M,-21.2,M,,*67}*38
{0EDF7AD5 $PUBX,04,144212.00,251124,139331.99,2342,18,-595318,-792.060,21*16}*49
{MODE TimeValid PPS}*35
{0EF6BF13 P}*75
{0EF86FDC $GPDTM,W84,,0.0,N,0.0,E,0.0,W84*6F}*4B
{0EF994AD $GPRMC,144213.00,A,4526.08236,N,12242.37863,W,0.198,,251124,,,A*66}*4C
{0EFBBEB6 $GPGGA,144213.00,4526.08236,N,12242.37863,W,1,06,1.72,172.7,M,-21.2,M,,*66}*4C
{0EFE2B87 $PUBX,04,144213.00,251124,139332.99,2342,18,-596109,-791.787,21*18}*30
{MODE TimeValid PPS}*35
{0F15438C P}*78
{0F16E4B3 $GPDTM,W84,,0.0,N,0.0,E,0.0,W84*6F}*46
{0F180990 $GPRMC,144214.00,A,4526.08218,N,12242.37862,W,0.157,,251124,,,A*6F}*48
{0F1A33AE $GPGGA,144214.00,4526.08218,N,12242.37862,W,1,06,1.72,172.4,M,-21.2,M,,*6F}*35
{0F1CA075 $PUBX,04,144214.00,251124,139333.99,2342,18,-596902,-791.776,21*13}*4E
{MODE TimeValid PPS}*35
{0F33C804 P}*7F
{0F3576E7 $GPDTM,W84,,0.0,N,0.0,E,0.0,W84*6F}*34
{0F369BB9 $GPRMC,144215.00,A,4526.08214,N,12242.37869,W,0.023,,251124,,,A*6B}*44
{0F38C5D7 $GPGGA,144215.00,4526.08214,N,12242.37869,W,1,06,1.72,172.1,M,-21.2,M,,*6C}*49
{0F3B32A9 $PUBX,04,144215.00,251124,139334.99,2342,18,-597695,-791.829,21*10}*47
{MODE TimeValid PPS}*35
{0F524C7C P}*04
{0F53E204 $GPDTM,W84,,0.0,N,0.0,E,0.0,W84*6F}*34
{0F5506C4 $GPRMC,144216.00,A,4526.08204,N,12242.37874,W,0.095,,251124,,,A*68}*49
{0F5730FE $GPGGA,144216.00,4526.08204,N,12242.37874,W,1,06,1.72,171.9,M,-21.2,M,,*69}*3A
{0F599DB7 $PUBX,04,144216.00,251124,139335.99,2342,18,-598487,-791.848,21*1B}*32
{MODE TimeValid PPS}*35
{0F70D0F5 P}*00
{0F727DD0 $GPDTM,W84,,0.0,N,0.0,E,0.0,W84*6F}*43
{0F73A2B7 $GPRMC,144217.00,A,4526.08188,N,12242.37877,W,0.228,,251124,,,A*69}*3A
{0F75CCAA $GPGGA,144217.00,4526.08188,N,12242.37877,W,1,06,1.72,171.9,M,-21.2,M,,*6C}*45
{0F7839A6 $PUBX,04,144217.00,251124,139336.99,2342,18,-599279,-791.793,21*16}*3D
{MODE TimeValid PPS}*35
{0F8F556E P}*0D
{0F90EE58 $GPDTM,W84,,0.0,N,0.0,E,0.0,W84*6F}*45
{0F921335 $GPRMC,144218.00,A,4526.08167,N,12242.37879,W,0.311,,251124,,,A*62}*37
{0F943D27 $GPGGA,144218.00,4526.08167,N,12242.37879,W,1,06,1.72,171.8,M,-21.2,M,,*6D}*3E
{0F96AA18 $PUBX,04,144218.00,251124,139337.99,2342,18,-600071,-791.688,21*1A}*32
{MODE TimeValid PPS}*35
{0FADD9E7 P}*0A
{0FAF6E5B $GPDTM,W84,,0.0,N,0.0,E,0.0,W84*6F}*42
{0FB09341 $GPRMC,144219.00,A,4526.08160,N,12242.37878,W,0.123,,251124,,,A*66}*45
{0FB2BD35 $GPGGA,144219.00,4526.08160,N,12242.37878,W,1,06,1.72,171.7,M,-21.2,M,,*65}*48
{0FB52A1A $PUBX,04,144219.00,251124,139338.99,2342,18,-600863,-791.611,21*1F}*42
{MODE TimeValid PPS}*35
{0FCC5E60 P}*76
{0FCDF055 $GPDTM,W84,,0.0,N,0.0,E,0.0,W84*6F}*30
{0FCF1525 $GPRMC,144220.00,A,4526.08139,N,12242.37881,W,0.230,,251124,,,A*67}*3E
{0FD13F44 $GPGGA,144220.00,4526.08139,N,12242.37881,W,1,06,1.72,171.5,M,-21.2,M,,*67}*38
{0FD3AC09 $PUBX,04,144220.00,251124,139339.99,2342,18,-601656,-791.819,21*1B}*4A
{MODE TimeValid PPS}*35
{0FEAE2D8 P}*0F
{0FEC9670 $GPDTM,W84,,0.0,N,0.0,E,0.0,W84*6F}*4F
{0FEDBB41 $GPRMC,144221.00,A,4526.08107,N,12242.37881,W,0.389,,251124,,,A*68}*3C
{0FEFE54A $GPGGA,144221.00,4526.08107,N,12242.37881,W,1,06,1.72,171.5,M,-21.2,M,,*6B}*47
{0FF25230 $PUBX,04,144221.00,251124,139340.99,2342,18,-602448,-791.975,21*11}*3F
{MODE TimeValid PPS}*35
{10096751 P}*7B
{100AF175 $GPDTM,W84,,0.0,N,0.0,E,0.0,W84*6F}*32
{100C165A $GPRMC,144222.00,A,4526.08087,N,12242.37882,W,0.248,,251124,,,A*6D}*36
{100E4085 $GPGGA,144222.00,4526.08087,N,12242.37882,W,1,06,1.72,171.4,M,-21.2,M,,*63}*33
{1010AD2A $PUBX,04,144222.00,251124,139341.99,2342,18,-603240,-791.823,21*1E}*34
{MODE TimeValid PPS}*35
{1027EBCA P}*77
{10298459 $GPDTM,W84,,0.0,N,0.0,E,0.0,W84*6F}*3D
{102AA940 $GPRMC,144223.00,A,4526.08069,N,12242.37892,W,0.130,,251124,,,A*61}*40
{102CD35C $GPGGA,144223.00,4526.08069,N,12242.37892,W,1,06,1.72,170.9,M,-21.2,M,,*6F}*46
{102F403B $PUBX,04,144223.00,251124,139342.99,2342,18,-604034,-791.825,21*1C}*46
{MODE TimeValid PPS}*35
{10467043 P}*75
{1047F90A $GPDTM,W84,,0.0,N,0.0,E,0.0,W84*6F}*3B
{10491DDB $GPRMC,144224.00,A,4526.08037,N,12242.37900,W,0.182,,251124,,,A*6E}*4A
{104B47F9 $GPGGA,144224.00,4526.08037,N,12242.37900,W,1,06,1.72,170.6,M,-21.2,M,,*66}*45
{104DB4BF $PUBX,04,144224.00,251124,139343.99,2342,18,-604826,-791.859,21*1A}*41
{MODE TimeValid PPS}*35
{1064F4BC P}*06
{10669373 $GPDTM,W84,,0.0,N,0.0,E,0.0,W84*6F}*38
{1067B85A $GPRMC,144225.00,A,4526.08034,N,12242.37899,W,0.084,,251124,,,A*6A}*3B
{1069E262 $GPGGA,144225.00,4526.08034,N,12242.37899,W,1,06,1.72,170.6,M,-21.2,M,,*65}*33
{106C4F27 $PUBX,04,144225.00,251124,139344.99,2342,18,-605618,-791.841,21*17}*3A
{MODE TimeValid PPS}*35
{10837934 P}*75
{10850411 $GPDTM,W84,,0.0,N,0.0,E,0.0,W84*6F}*3F
{108628E3 $GPRMC,144226.00,A,4526.08010,N,12242.37903,W,0.157,,251124,,,A*62}*3D
{108852EB $GPGGA,144226.00,4526.08010,N,12242.37903,W,1,06,1.72,170.5,M,-21.2,M,,*61}*4F
{108ABFA5 $PUBX,04,144226.00,251124,139345.99,2342,18,-606411,-791.923,21*18}*31
{MODE TimeValid PPS}*35
{10A1FDAE P}*01
{10A39867 $GPDTM,W84,,0.0,N,0.0,E,0.0,W84*6F}*44
{10A4BD40 $GPRMC,144227.00,A,4526.08013,N,12242.37905,W,0.087,,251124,,,A*6A}*43
{10A6E75F $GPGGA,144227.00,4526.08013,N,12242.37905,W,1,06,1.72,170.3,M,-21.2,M,,*63}*39
{10A9541C $PUBX,04,144227.00,251124,139346.99,2342,18,-607203,-791.804,21*1A}*48
{MODE TimeValid PPS}*35
{10C08227 P}*0B
{10C21165 $GPDTM,W84,,0.0,N,0.0,E,0.0,W84*6F}*44
{10C3363F $GPRMC,144228.00,A,4526.08015,N,12242.37901,W,0.112,,251124,,,A*6A}*34
{10C5606A $GPGGA,144228.00,4526.08015,N,12242.37901,W,1,06,1.72,170.4,M,-21.2,M,,*69}*48
{10C7CD23 $PUBX,04,144228.00,251124,139347.99,2342,18,-607994,-791.834,21*12}*4A
{MODE TimeValid PPS}*35
{10DF069F P}*0C
{10E09FC3 $GPDTM,W84,,0.0,N,0.0,E,0.0,W84*6F}*4C
{10E1C495 $GPRMC,144229.00,A,4526.08009,N,12242.37903,W,0.072,,251124,,,A*63}*40
{10E3EE9D $GPGGA,144229.00,4526.08009,N,12242.37903,W,1,06,1.72,170.4,M,-21.2,M,,*67}*44
{10E65B83 $PUBX,04,144229.00,251124,139348.99,2342,18,-608786,-792.004,21*16}*37
{MODE TimeValid PPS}*35
{10FD8B18 P}*06
{10FF1022 $GPDTM,W84,,0.0,N,0.0,E,0.0,W84*6F}*37
{110034FC $GPRMC,144230.00,A,4526.08012,N,12242.37902,W,0.152,,251124,,,A*63}*4C
{11025F19 $GPGGA,144230.00,4526.08012,N,12242.37902,W,1,06,1.72,170.4,M,-21.2,M,,*64}*37
{1104CBDF $PUBX,04,144230.00,251124,139349.99,2342,18,-609579,-792.151,21*1D}*47
{MODE TimeValid PPS}*35
{111C0F91 P}*7A
{111DB2A8 $GPDTM,W84,,0.0,N,0.0,E,0.0,W84*6F}*4B
{111ED783 $GPRMC,144231.00,A,4526.08020,N,12242.37905,W,0.023,,251124,,,A*63}*42
{1121018D $GPGGA,144231.00,4526.08020,N,12242.37905,W,1,06,1.72,170.2,M,-21.2,M,,*65}*30
{11236E47 $PUBX,04,144231.00,251124,139350.99,2342,18,-610371,-791.959,21*11}*48
{MODE TimeValid PPS}*35
{113A940A P}*78
{113C2832 $GPDTM,W84,,0.0,N,0.0,E,0.0,W84*6F}*4C
{113D4D0D $GPRMC,144232.00,A,4526.08025,N,12242.37908,W,0.076,,251124,,,A*68}*3D
{113F7715 $GPGGA,144232.00,4526.08025,N,12242.37908,W,1,06,1.72,170.1,M,-21.2,M,,*6D}*46
{1141E3F1 $PUBX,04,144232.00,251124,139351.99,2342,18,-611163,-791.801,21*1F}*44
{MODE TimeValid PPS}*35
{11591883 P}*78
{115AC767 $GPDTM,W84,,0.0,N,0.0,E,0.0,W84*6F}*36
{115BEC4E $GPRMC,144233.00,A,4526.08034,N,12242.37916,W,0.035,,251124,,,A*61}*4E
{115E164D $GPGGA,144233.00,4526.08034,N,12242.37916,W,1,06,1.72,169.8,M,-21.2,M,,*62}*49
{11608328 $PUBX,04,144233.00,251124,139352.99,2342,18,-611955,-791.785,21*13}*3E
{MODE TimeValid PPS}*35
{11779CFC P}*09
{11792BDF $GPDTM,W84,,0.0,N,0.0,E,0.0,W84*6F}*4B
{117A50B0 $GPRMC,144234.00,A,4526.08043,N,12242.37912,W,0.019,,251124,,,A*6C}*30
{117C7ACE $GPGGA,144234.00,4526.08043,N,12242.37912,W,1,06,1.72,169.9,M,-21.2,M,,*60}*4A
{117EE787 $PUBX,04,144234.00,251124,139353.99,2342,18,-612747,-791.896,21*16}*36
