{035E78AE $GPDTM,W84,,0.0,N,0.0,E,0.0,W84*6F}*4F
{035F9D88 $GPRMC,180621.00,A,4526.08438,N,12242.37667,W,0.350,,080724,,,A*67}*43
{0361C7B1 $GPGGA,180621.00,4526.08438,N,12242.37667,W,1,09,0.95,171.6,M,-21.2,M,,*6C}*32
{03643462 $PUBX,04,180621.00,080724,151581.00,2322,18,-269399,-822.193,21*13}*3B
{MODE TimeValid PPS}*35
{037B2752 P}*02
{037CEE21 $GPDTM,W84,,0.0,N,0.0,E,0.0,W84*6F}*43
{037E12FE $GPRMC,180622.00,A,4526.08440,N,12242.37688,W,0.316,,080724,,,A*68}*3F
{03803CF1 $GPGGA,180622.00,4526.08440,N,12242.37688,W,1,09,0.95,171.4,M,-21.2,M,,*63}*42
{0382A9E0 $PUBX,04,180622.00,080724,151582.00,2322,18,-270222,-822.342,21*14}*3D
{MODE TimeValid PPS}*35
{0399ABB5 P}*01
{039B8798 $GPDTM,W84,,0.0,N,0.0,E,0.0,W84*6F}*41
{039CAC5C $GPRMC,180623.00,A,4526.08440,N,12242.37689,W,0.237,,080724,,,A*6A}*38
{039ED67B $GPGGA,180623.00,4526.08440,N,12242.37689,W,1,09,0.95,171.6,M,-21.2,M,,*61}*36
{03A1434C $PUBX,04,180623.00,080724,151583.00,2322,18,-271044,-822.206,21*16}*3A
{MODE TimeValid PPS}*35
{03B83018 P}*05
{03B9FE9A $GPDTM,W84,,0.0,N,0.0,E,0.0,W84*6F}*34
{03BB2377 $GPRMC,180624.00,A,4526.08441,N,12242.37694,W,0.183,,080724,,,A*6C}*33
{03BD4D80 $GPGGA,180624.00,4526.08441,N,12242.37694,W,1,09,0.95,171.4,M,-21.2,M,,*69}*33
{03BFBA46 $PUBX,04,180624.00,080724,151584.00,2322,18,-271866,-822.154,21*1A}*44
{MODE TimeValid PPS}*35
{03D6B47B P}*04
{03D88FE8 $GPDTM,W84,,0.0,N,0.0,E,0.0,W84*6F}*4B
{03D9B4C2 $GPRMC,180625.00,A,4526.08446,N,12242.37696,W,0.082,,080724,,,A*68}*37
{03DBDECB $GPGGA,180625.00,4526.08446,N,12242.37696,W,1,09,0.95,171.5,M,-21.2,M,,*6C}*34
{03DE4B9D $PUBX,04,180625.00,080724,151585.00,2322,18,-272687,-822.090,21*11}*30
{MODE TimeValid PPS}*35
{03F538DE P}*0C
{03F707D4 $GPDTM,W84,,0.0,N,0.0,E,0.0,W84*6F}*32
{03F82CAE $GPRMC,180626.00,A,4526.08444,N,12242.37695,W,0.095,,080724,,,A*6C}*39
{03FA56CC $GPGGA,180626.00,4526.08444,N,12242.37695,W,1,09,0.95,171.4,M,-21.2,M,,*6F}*30
{03FCC37E $PUBX,04,180626.00,080724,151586.00,2322,18,-273509,-822.067,21*1D}*44
{MODE TimeValid PPS}*35
{0413BD41 P}*73
{041588B3 $GPDTM,W84,,0.0,N,0.0,E,0.0,W84*6F}*46
{0416ADA3 $GPRMC,180627.00,A,4526.08444,N,12242.37713,W,0.240,,080724,,,A*68}*3A
{0418D7B7 $GPGGA,180627.00,4526.08444,N,12242.37713,W,1,09,0.95,171.3,M,-21.2,M,,*66}*45
{041B447C $PUBX,04,180627.00,080724,151587.00,2322,18,-274331,-822.179,21*19}*3A
{MODE TimeValid PPS}*35
{043241A4 P}*03
{04341CE7 $GPDTM,W84,,0.0,N,0.0,E,0.0,W84*6F}*34
{043541B8 $GPRMC,180628.00,A,4526.08443,N,12242.37717,W,0.139,,080724,,,A*69}*33
{04376BD5 $GPGGA,180628.00,4526.08443,N,12242.37717,W,1,09,0.95,171.3,M,-21.2,M,,*6A}*30
{0439D89C $PUBX,04,180628.00,080724,151588.00,2322,18,-275153,-822.217,21*15}*31
{MODE TimeValid PPS}*35
{0450C607 P}*05
{04529ABC $GPDTM,W84,,0.0,N,0.0,E,0.0,W84*6F}*4D
{0453BF8E $GPRMC,180629.00,A,4526.08448,N,12242.37709,W,0.111,,080724,,,A*66}*35
{0455E996 $GPGGA,180629.00,4526.08448,N,12242.37709,W,1,09,0.95,171.5,M,-21.2,M,,*69}*39
{0458565A $PUBX,04,180629.00,080724,151589.00,2322,18,-275974,-822.031,21*1E}*3C
{MODE TimeValid PPS}*35
{046F4A6A P}*00
{04711D01 $GPDTM,W84,,0.0,N,0.0,E,0.0,W84*6F}*41
{047241D2 $GPRMC,180630.00,A,4526.08453,N,12242.37703,W,0.049,,080724,,,A*62}*3C
{04746BDA $GPGGA,180630.00,4526.08453,N,12242.37703,W,1,09,0.95,171.6,M,-21.2,M,,*62}*38
{0476D8B5 $PUBX,04,180630.00,080724,151590.00,2322,18,-276796,-821.920,21*15}*37
{MODE TimeValid PPS}*35
{048DCECD P}*0F
{048FC012 $GPDTM,W84,,0.0,N,0.0,E,0.0,W84*6F}*3D
{0490E4ED $GPRMC,180631.00,A,4526.08449,N,12242.37713,W,0.172,,080724,,,A*60}*33
{04930F01 $GPGGA,180631.00,4526.08449,N,12242.37713,W,1,09,0.95,171.4,M,-21.2,M,,*6B}*4E
{04957BC7 $PUBX,04,180631.00,080724,151591.00,2322,18,-277618,-822.071,21*1D}*49
{MODE TimeValid PPS}*35
{04AC5330 P}*75
{04AE21A0 $GPDTM,W84,,0.0,N,0.0,E,0.0,W84*6F}*45
{04AF467A $GPRMC,180632.00,A,4526.08450,N,12242.37708,W,0.058,,080724,,,A*68}*39
{04B170A4 $GPGGA,180632.00,4526.08450,N,12242.37708,W,1,09,0.95,171.6,M,-21.2,M,,*68}*4B
{04B3DD5D $PUBX,04,180632.00,080724,151592.00,2322,18,-278439,-822.013,21*17}*3D
{MODE TimeValid PPS}*35
{04CAD793 P}*09
{04CCB8BC $GPDTM,W84,,0.0,N,0.0,E,0.0,W84*6F}*48
{04CDDD96 $GPRMC,180633.00,A,4526.08454,N,12242.37703,W,0.110,,080724,,,A*6B}*3B
{04D007A3 $GPGGA,180633.00,4526.08454,N,12242.37703,W,1,09,0.95,171.6,M,-21.2,M,,*66}*4B
{04D2745C $PUBX,04,180633.00,080724,151593.00,2322,18,-279261,-821.947,21*16}*3E
{MODE TimeValid PPS}*35
{04E95BF7 P}*08
{04EB2385 $GPDTM,W84,,0.0,N,0.0,E,0.0,W84*6F}*38
{04EC4856 $GPRMC,180634.00,A,4526.08455,N,12242.37699,W,0.072,,080724,,,A*6A}*38
{04EE7275 $GPGGA,180634.00,4526.08455,N,12242.37699,W,1,09,0.95,171.7,M,-21.2,M,,*63}*4D
{04F0DF43 $PUBX,04,180634.00,080724,151594.00,2322,18,-280082,-821.959,21*10}*4E
{MODE TimeValid PPS}*35
{0507E05A P}*75
{0509A445 $GPDTM,W84,,0.0,N,0.0,E,0.0,W84*6F}*4F
{050AC917 $GPRMC,180635.00,A,4526.08455,N,12242.37689,W,0.071,,080724,,,A*69}*46
{050CF31E $GPGGA,180635.00,4526.08455,N,12242.37689,W,1,09,0.95,171.8,M,-21.2,M,,*6C}*46
{050F5FF0 $PUBX,04,180635.00,080724,151595.00,2322,18,-280904,-821.840,21*1E}*34
{MODE TimeValid PPS}*35
{052664BD P}*73
{05281B42 $GPDTM,W84,,0.0,N,0.0,E,0.0,W84*6F}*4D
{05294013 $GPRMC,180636.00,A,4526.08457,N,12242.37678,W,0.156,,080724,,,A*62}*46
{052B6A1B $GPGGA,180636.00,4526.08457,N,12242.37678,W,1,09,0.95,171.9,M,-21.2,M,,*62}*3F
{052DD6D4 $PUBX,04,180636.00,080724,151596.00,2322,18,-281725,-821.779,21*17}*48
{MODE TimeValid PPS}*35
{0544E920 P}*0D
{05469788 $GPDTM,W84,,0.0,N,0.0,E,0.0,W84*6F}*3E
{0547BC61 $GPRMC,180637.00,A,4526.08458,N,12242.37683,W,0.086,,080724,,,A*64}*4E
{0549E66A $GPGGA,180637.00,4526.08458,N,12242.37683,W,1,08,1.05,171.9,M,-21.2,M,,*61}*42
{054C533B $PUBX,04,180637.00,080724,151597.00,2322,18,-282547,-821.952,21*15}*3C
{MODE TimeValid PPS}*35
{05636D84 P}*08
{056513A1 $GPDTM,W84,,0.0,N,0.0,E,0.0,W84*6F}*43
{05663888 $GPRMC,180638.00,A,4526.08466,N,12242.37687,W,0.215,,080724,,,A*6A}*3B
{0568627C $GPGGA,180638.00,4526.08466,N,12242.37687,W,1,09,0.95,172.0,M,-21.2,M,,*64}*35
{056ACF4A $PUBX,04,180638.00,080724,151598.00,2322,18,-283368,-821.937,21*1C}*44
{MODE TimeValid PPS}*35
{0581F1E7 P}*7F
{0583B83A $GPDTM,W84,,0.0,N,0.0,E,0.0,W84*6F}*31
{0584DD14 $GPRMC,180639.00,A,4526.08472,N,12242.37688,W,0.063,,080724,,,A*62}*42
{05870728 $GPGGA,180639.00,4526.08472,N,12242.37688,W,1,09,0.95,172.2,M,-21.2,M,,*6D}*30
{058973EE $PUBX,04,180639.00,080724,151599.00,2322,18,-284190,-821.932,21*1B}*40
{MODE TimeValid PPS}*35
{05A0764B P}*75
{05A22CFD $GPDTM,W84,,0.0,N,0.0,E,0.0,W84*6F}*32
{05A351E3 $GPRMC,180640.00,A,4526.08478,N,12242.37683,W,0.093,,080724,,,A*62}*4B
{05A57BD6 $GPGGA,180640.00,4526.08478,N,12242.37683,W,1,09,0.95,172.4,M,-21.2,M,,*64}*38
{05A7E8B1 $PUBX,04,180640.00,080724,151600.00,2322,18,-285011,-821.876,21*1E}*3F
{MODE TimeValid PPS}*35
{05BEFAAE P}*77
{05C0C805 $GPDTM,W84,,0.0,N,0.0,E,0.0,W84*6F}*3F
{05C1ECDF $GPRMC,180641.00,A,4526.08479,N,12242.37686,W,0.172,,080724,,,A*69}*3D
{05C41707 $GPGGA,180641.00,4526.08479,N,12242.37686,W,1,09,0.95,172.6,M,-21.2,M,,*63}*3D
{05C683B8 $PUBX,04,180641.00,080724,151601.00,2322,18,-285832,-822.024,21*1B}*41
{MODE TimeValid PPS}*35
{05DD7F11 P}*02
{05DF35AB $GPDTM,W84,,0.0,N,0.0,E,0.0,W84*6F}*35
{05E05A7D $GPRMC,180642.00,A,4526.08487,N,12242.37652,W,0.143,,080724,,,A*60}*39
{05E28499 $GPGGA,180642.00,4526.08487,N,12242.37652,W,1,09,0.95,173.1,M,-21.2,M,,*6E}*4B
{05E4F175 $PUBX,04,180642.00,080724,151602.00,2322,18,-286652,-821.721,21*11}*38
{MODE TimeValid PPS}*35
{05FC0375 P}*77
{05FDCAB2 $GPDTM,W84,,0.0,N,0.0,E,0.0,W84*6F}*42
{05FEEF98 $GPRMC,180643.00,A,4526.08501,N,12242.37636,W,0.075,,080724,,,A*68}*4A
{060119AC $GPGGA,180643.00,4526.08501,N,12242.37636,W,1,09,0.95,173.5,M,-21.2,M,,*66}*43
{0603867A $PUBX,04,180643.00,080724,151603.00,2322,18,-287473,-821.642,21*15}*44
{MODE TimeValid PPS}*35
{061A87D9 P}*72
{061C41EC $GPDTM,W84,,0.0,N,0.0,E,0.0,W84*6F}*40
{061D66C6 $GPRMC,180644.00,A,4526.08507,N,12242.37626,W,0.068,,080724,,,A*64}*48
{061F90DA $GPGGA,180644.00,4526.08507,N,12242.37626,W,1,09,0.95,173.8,M,-21.2,M,,*6B}*4A
{0621FDAA $PUBX,04,180644.00,080724,151604.00,2322,18,-288293,-821.656,21*17}*3E
{MODE TimeValid PPS}*35
{06390C3C P}*79
{063ADEE8 $GPDTM,W84,,0.0,N,0.0,E,0.0,W84*6F}*3F
{063C03C5 $GPRMC,180645.00,A,4526.08514,N,12242.37630,W,0.075,,080724,,,A*6C}*32
{063E2DCE $GPGGA,180645.00,4526.08514,N,12242.37630,W,1,09,0.95,174.1,M,-21.2,M,,*61}*4E
{06409AA8 $PUBX,04,180645.00,080724,151605.00,2322,18,-289115,-821.825,21*11}*3A
{MODE TimeValid PPS}*35
{065790A0 P}*0A
{06594B9E $GPDTM,W84,,0.0,N,0.0,E,0.0,W84*6F}*37
{065A706F $GPRMC,180646.00,A,4526.08525,N,12242.37630,W,0.125,,080724,,,A*69}*4B
{065C9A8D $GPGGA,180646.00,4526.08525,N,12242.37630,W,1,09,0.95,174.4,M,-21.2,M,,*65}*3A
{065F075A $PUBX,04,180646.00,080724,151606.00,2322,18,-289936,-821.951,21*1A}*44
{MODE TimeValid PPS}*35
{06761503 P}*76
{0677DF95 $GPDTM,W84,,0.0,N,0.0,E,0.0,W84*6F}*3F
{06790466 $GPRMC,180647.00,A,4526.08532,N,12242.37607,W,0.137,,080724,,,A*69}*42
{067B2E6E $GPGGA,180647.00,4526.08532,N,12242.37607,W,1,09,0.95,175.0,M,-21.2,M,,*63}*39
{067D9B34 $PUBX,04,180647.00,080724,151607.00,2322,18,-290756,-821.862,21*1B}*49
{MODE TimeValid PPS}*35
{06949967 P}*7C
{06965C83 $GPDTM,W84,,0.0,N,0.0,E,0.0,W84*6F}*43
{06978154 $GPRMC,180648.00,A,4526.08542,N,12242.37553,W,0.141,,080724,,,A*62}*4E
{0699AB5D $GPGGA,180648.00,4526.08542,N,12242.37553,W,1,09,0.95,175.7,M,-21.2,M,,*6E}*41
{069C182F $PUBX,04,180648.00,080724,151608.00,2322,18,-291575,-821.461,21*16}*38
{MODE TimeValid PPS}*35
{06B31DCA P}*76
{06B4CF99 $GPDTM,W84,,0.0,N,0.0,E,0.0,W84*6F}*42
{06B5F473 $GPRMC,180649.00,A,4526.08550,N,12242.37530,W,0.150,,080724,,,A*65}*49
{06B81E86 $GPGGA,180649.00,4526.08550,N,12242.37530,W,1,09,0.95,176.1,M,-21.2,M,,*6C}*37
{06BA8B4D $PUBX,04,180649.00,080724,151609.00,2322,18,-292395,-821.509,21*12}*36
{MODE TimeValid PPS}*35
{06D1A22E P}*01
{06D359BE $GPDTM,W84,,0.0,N,0.0,E,0.0,W84*6F}*4D
{06D47E83 $GPRMC,180650.00,A,4526.08557,N,12242.37505,W,0.189,,080724,,,A*68}*41
{06D6A898 $GPGGA,180650.00,4526.08557,N,12242.37505,W,1,09,0.95,176.5,M,-21.2,M,,*61}*42
{06D9155C $PUBX,04,180650.00,080724,151610.00,2322,18,-293216,-821.488,21*11}*30
{MODE TimeValid PPS}*35
{06F02692 P}*09
{06F1F82B $GPDTM,W84,,0.0,N,0.0,E,0.0,W84*6F}*48
{06F31CFB $GPRMC,180651.00,A,4526.08562,N,12242.37465,W,0.354,,080724,,,A*6A}*30
{06F54719 $GPGGA,180651.00,4526.08562,N,12242.37465,W,1,09,0.95,176.7,M,-21.2,M,,*63}*30
{06F7B3CA $PUBX,04,180651.00,080724,151611.00,2322,18,-294036,-821.303,21*12}*3D
{MODE TimeValid PPS}*35
{070EAAF6 P}*74
{07106DBE $GPDTM,W84,,0.0,N,0.0,E,0.0,W84*6F}*44
{071192A4 $GPRMC,180652.00,A,4526.08567,N,12242.37470,W,0.039,,080724,,,A*60}*37
{0713BC98 $GPGGA,180652.00,4526.08567,N,12242.37470,W,1,09,0.95,176.8,M,-21.2,M,,*6E}*30
{0716296A $PUBX,04,180652.00,080724,151612.00,2322,18,-294857,-821.506,21*1E}*3E
{MODE TimeValid PPS}*35
{072D2F59 P}*7F
{072EF90C $GPDTM,W84,,0.0,N,0.0,E,0.0,W84*6F}*4B
{07301DF1 $GPRMC,180653.00,A,4526.08571,N,12242.37450,W,0.217,,080724,,,A*6A}*33
{073247F1 $GPGGA,180653.00,4526.08571,N,12242.37450,W,1,09,0.95,177.0,M,-21.2,M,,*63}*3C
{0734B4C0 $PUBX,04,180653.00,080724,151613.00,2322,18,-295678,-821.487,21*14}*3C
{MODE TimeValid PPS}*35
{074BB3BD P}*70
{074D7708 $GPDTM,W84,,0.0,N,0.0,E,0.0,W84*6F}*48
{074E9BEF $GPRMC,180654.00,A,4526.08571,N,12242.37393,W,0.555,,080724,,,A*64}*40
{0750C5E3 $GPGGA,180654.00,4526.08571,N,12242.37393,W,1,09,0.95,177.3,M,-21.2,M,,*6F}*35
{075332B5 $PUBX,04,180654.00,080724,151614.00,2322,18,-296498,-821.194,21*1C}*31
{MODE TimeValid PPS}*35
{076A3821 P}*0E
{076C0B9E $GPDTM,W84,,0.0,N,0.0,E,0.0,W84*6F}*4B
{076D3070 $GPRMC,180655.00,A,4526.08578,N,12242.37370,W,0.342,,080724,,,A*61}*3F
{076F5A8D $GPGGA,180655.00,4526.08578,N,12242.37370,W,1,09,0.95,177.4,M,-21.2,M,,*6D}*48
{0771C75D $PUBX,04,180655.00,080724,151615.00,2322,18,-297319,-821.177,21*1E}*46
{MODE TimeValid PPS}*35
{0788BC85 P}*7D
{078A7693 $GPDTM,W84,,0.0,N,0.0,E,0.0,W84*6F}*42
{078B9B7A $GPRMC,180656.00,A,4526.08576,N,12242.37397,W,0.146,,080724,,,A*63}*3E
{078DC597 $GPGGA,180656.00,4526.08576,N,12242.37397,W,1,09,0.95,177.4,M,-21.2,M,,*69}*4D
{07903268 $PUBX,04,180656.00,080724,151616.00,2322,18,-298141,-821.622,21*19}*38
{MODE TimeValid PPS}*35
{07A740E8 P}*7E
{07A9051C $GPDTM,W84,,0.0,N,0.0,E,0.0,W84*6F}*3F
{07AA2A03 $GPRMC,180657.00,A,4526.08577,N,12242.37359,W,0.194,,080724,,,A*6E}*42
{07AC5421 $GPGGA,180657.00,4526.08577,N,12242.37359,W,1,09,0.95,177.6,M,-21.2,M,,*69}*49
{07AEC0E7 $PUBX,04,180657.00,080724,151617.00,2322,18,-298962,-821.447,21*11}*3B
{MODE TimeValid PPS}*35
{07C5C54C P}*06
{07C7836F $GPDTM,W84,,0.0,N,0.0,E,0.0,W84*6F}*3F
{07C8A841 $GPRMC,180658.00,A,4526.08583,N,12242.37316,W,0.360,,080724,,,A*68}*4E
{07CAD25D $GPGGA,180658.00,4526.08583,N,12242.37316,W,1,09,0.95,177.8,M,-21.2,M,,*68}*4C
{07CD3F22 $PUBX,04,180658.00,080724,151618.00,2322,18,-299782,-821.155,21*16}*4C
{MODE TimeValid PPS}*35
{07E449B0 P}*7F
{07E61877 $GPDTM,W84,,0.0,N,0.0,E,0.0,W84*6F}*4A
{07E73D51 $GPRMC,180659.00,A,4526.08584,N,12242.37302,W,0.247,,080724,,,A*6F}*31
{07E9675B $GPGGA,180659.00,4526.08584,N,12242.37302,W,1,09,0.95,178.0,M,-21.2,M,,*6C}*3C
{07EBD422 $PUBX,04,180659.00,080724,151619.00,2322,18,-300602,-821.179,21*10}*49
{MODE TimeValid PPS}*35
{0802CE14 P}*7F
{08046C64 $GPDTM,W84,,0.0,N,0.0,E,0.0,W84*6F}*4C
{0805914A $GPRMC,180700.00,A,4526.08585,N,12242.37273,W,0.422,,080724,,,A*61}*3E
{0807BB67 $GPGGA,180700.00,4526.08585,N,12242.37273,W,1,09,0.95,178.3,M,-21.2,M,,*64}*40
{080A2838 $PUBX,04,180700.00,080724,151620.00,2322,18,-301423,-821.077,21*18}*41
{MODE TimeValid PPS}*35
{08215277 P}*7A
{08235BF1 $GPDTM,W84,,0.0,N,0.0,E,0.0,W84*6F}*3E
{082480C3 $GPRMC,180701.00,A,4526.08586,N,12242.37269,W,0.154,,080724,,,A*6C}*47
{0826AACC $GPGGA,180701.00,4526.08586,N,12242.37269,W,1,09,0.95,178.4,M,-21.2,M,,*6A}*39
{082917AA $PUBX,04,180701.00,080724,151621.00,2322,18,-302244,-821.220,21*1C}*43
{MODE TimeValid PPS}*35
{083FD6DB P}*7F
{084198AF $GPDTM,W84,,0.0,N,0.0,E,0.0,W84*6F}*3C
{0842BD89 $GPRMC,180702.00,A,4526.08589,N,12242.37237,W,0.419,,080724,,,A*67}*47
{0844E789 $GPGGA,180702.00,4526.08589,N,12242.37237,W,1,09,0.95,178.7,M,-21.2,M,,*6E}*4E
{08475464 $PUBX,04,180702.00,080724,151622.00,2322,18,-303064,-820.981,21*1C}*4E
{MODE TimeValid PPS}*35
{085E5B3F P}*0C
{08601E08 $GPDTM,W84,,0.0,N,0.0,E,0.0,W84*6F}*45
{086142EF $GPRMC,180703.00,A,4526.08592,N,12242.37231,W,0.412,,080724,,,A*61}*44
{08636D0C $GPGGA,180703.00,4526.08592,N,12242.37231,W,1,08,1.23,178.8,M,-21.2,M,,*61}*42
{0865D9D2 $PUBX,04,180703.00,080724,151623.00,2322,18,-303886,-820.920,21*13}*39
{MODE TimeValid PPS}*35
{087CDFA2 P}*7B
{087E8BCF $GPDTM,W84,,0.0,N,0.0,E,0.0,W84*6F}*32
{087FB0B6 $GPRMC,180704.00,A,4526.08596,N,12242.37246,W,0.347,,080724,,,A*65}*31
{0881DAA9 $GPGGA,180704.00,4526.08596,N,12242.37246,W,1,08,1.23,178.7,M,-21.2,M,,*6D}*4B
{0884479C $PUBX,04,180704.00,080724,151624.00,2322,18,-304708,-821.041,21*12}*44
{MODE TimeValid PPS}*35
{089B6406 P}*01
{089D1B05 $GPDTM,W84,,0.0,N,0.0,E,0.0,W84*6F}*34
{089E3FEC $GPRMC,180705.00,A,4526.08596,N,12242.37294,W,0.042,,080724,,,A*6D}*30
{08A06A09 $GPGGA,180705.00,4526.08596,N,12242.37294,W,1,08,1.23,178.5,M,-21.2,M,,*61}*49
{08A2D6C3 $PUBX,04,180705.00,080724,151625.00,2322,18,-305531,-821.385,21*10}*40
{MODE TimeValid PPS}*35
{08B9E86A P}*0F
{08BB96C1 $GPDTM,W84,,0.0,N,0.0,E,0.0,W84*6F}*42
{08BCBB7E $GPRMC,180706.00,A,4526.08595,N,12242.37320,W,0.075,,080724,,,A*67}*35
{08BEE59C $GPGGA,180706.00,4526.08595,N,12242.37320,W,1,08,1.23,178.4,M,-21.2,M,,*6E}*30
{08C1526E $PUBX,04,180706.00,080724,151626.00,2322,18,-306354,-821.534,21*1A}*4C
{MODE TimeValid PPS}*35
{08D86CCD P}*70
{08DA03A5 $GPDTM,W84,,0.0,N,0.0,E,0.0,W84*6F}*4D
{08DB2876 $GPRMC,180707.00,A,4526.08599,N,12242.37285,W,0.483,,080724,,,A*69}*4B
{08DD527E $GPGGA,180707.00,4526.08599,N,12242.37285,W,1,07,1.40,178.6,M,-21.2,M,,*65}*33
{08DFBF4D $PUBX,04,180707.00,080724,151627.00,2322,18,-307174,-821.134,21*1F}*3E
{MODE TimeValid PPS}*35
{08F6F132 P}*78
{08F8B31D $GPDTM,W84,,0.0,N,0.0,E,0.0,W84*6F}*45
{08F9D7EF $GPRMC,180708.00,A,4526.08598,N,12242.37321,W,0.120,,080724,,,A*64}*49
{08FC0202 $GPGGA,180708.00,4526.08598,N,12242.37321,W,1,09,0.95,178.7,M,-21.2,M,,*62}*43
{08FE6EBB $PUBX,04,180708.00,080724,151628.00,2322,18,-307997,-821.478,21*17}*41
{MODE TimeValid PPS}*35
{09157596 P}*76
{09173CF9 $GPDTM,W84,,0.0,N,0.0,E,0.0,W84*6F}*37
{091861CA $GPRMC,180709.00,A,4526.08600,N,12242.37333,W,0.024,,080724,,,A*61}*4B
{091A8BE7 $GPGGA,180709.00,4526.08600,N,12242.37333,W,1,09,0.95,178.7,M,-21.2,M,,*62}*3F
{091CF8C2 $PUBX,04,180709.00,080724,151629.00,2322,18,-308818,-821.492,21*1A}*36
{MODE TimeValid PPS}*35
{0933F9FA P}*07
{0935BD7A $GPDTM,W84,,0.0,N,0.0,E,0.0,W84*6F}*48
{0936E24B $GPRMC,180710.00,A,4526.08600,N,12242.37372,W,0.141,,080724,,,A*6E}*38
{09390C60 $GPGGA,180710.00,4526.08600,N,12242.37372,W,1,09,0.95,178.4,M,-21.2,M,,*6C}*47
{093B7926 $PUBX,04,180710.00,080724,151630.00,2322,18,-309642,-821.757,21*10}*4B
{MODE TimeValid PPS}*35
{09527E5D P}*7B
{09544DA9 $GPDTM,W84,,0.0,N,0.0,E,0.0,W84*6F}*37
{09557290 $GPRMC,180711.00,A,4526.08600,N,12242.37406,W,0.218,,080724,,,A*64}*4B
{09579C83 $GPGGA,180711.00,4526.08600,N,12242.37406,W,1,09,0.95,178.2,M,-21.2,M,,*6F}*4D
{095A096A $PUBX,04,180711.00,080724,151631.00,2322,18,-310465,-821.957,21*11}*3A
{MODE TimeValid PPS}*35
{097102C2 P}*0A
{0972C6B0 $GPDTM,W84,,0.0,N,0.0,E,0.0,W84*6F}*3C
{0973EB82 $GPRMC,180712.00,A,4526.08601,N,12242.37450,W,0.564,,080724,,,A*69}*4E
{09761595 $GPGGA,180712.00,4526.08601,N,12242.37450,W,1,09,0.95,178.2,M,-21.2,M,,*6E}*35
{0978825B $PUBX,04,180712.00,080724,151632.00,2322,18,-311288,-822.104,21*18}*42
{MODE TimeValid PPS}*35
{098F8726 P}*0A
{09914CD0 $GPDTM,W84,,0.0,N,0.0,E,0.0,W84*6F}*35
{099271A2 $GPRMC,180713.00,A,4526.08599,N,12242.37480,W,0.476,,080724,,,A*65}*39
{09949BAA $GPGGA,180713.00,4526.08599,N,12242.37480,W,1,09,0.95,178.1,M,-21.2,M,,*63}*31
{09970890 $PUBX,04,180713.00,080724,151633.00,2322,18,-312110,-822.114,21*18}*3F
{MODE TimeValid PPS}*35
{09AE0B89 P}*08
{09AFCF5E $GPDTM,W84,,0.0,N,0.0,E,0.0,W84*6F}*4C
{09B0F444 $GPRMC,180714.00,A,4526.08595,N,12242.37549,W,0.641,,080724,,,A*6C}*38
{09B31E44 $GPGGA,180714.00,4526.08595,N,12242.37549,W,1,09,0.95,177.7,M,-21.2,M,,*65}*42
{09B58B0A $PUBX,04,180714.00,080724,151634.00,2322,18,-312934,-822.447,21*15}*4C
{MODE TimeValid PPS}*35
{09CC8FED P}*00
{09CE57C2 $GPDTM,W84,,0.0,N,0.0,E,0.0,W84*6F}*4B
{09CF7C87 $GPRMC,180715.00,A,4526.08595,N,12242.37568,W,0.529,,080724,,,A*63}*39
{09D1A690 $GPGGA,180715.00,4526.08595,N,12242.37568,W,1,09,0.95,177.4,M,-21.2,M,,*64}*4C
{09D41361 $PUBX,04,180715.00,080724,151635.00,2322,18,-313757,-822.310,21*1A}*3E
{MODE TimeValid PPS}*35
{09EB1452 P}*7A
{09ECCC64 $GPDTM,W84,,0.0,N,0.0,E,0.0,W84*6F}*3A
{09EDF135 $GPRMC,180716.00,A,4526.08594,N,12242.37624,W,0.779,,080724,,,A*6D}*4E
{09F01B5E $GPGGA,180716.00,4526.08594,N,12242.37624,W,1,09,0.95,177.0,M,-21.2,M,,*69}*32
{09F28824 $PUBX,04,180716.00,080724,151636.00,2322,18,-314581,-822.491,21*1A}*39
{MODE TimeValid PPS}*35
{0A0998B6 P}*7B
{0A0B6A56 $GPDTM,W84,,0.0,N,0.0,E,0.0,W84*6F}*40
{0A0C8F30 $GPRMC,180717.00,A,4526.08595,N,12242.37639,W,0.527,,080724,,,A*68}*31
{0A0EB930 $GPGGA,180717.00,4526.08595,N,12242.37639,W,1,09,0.95,176.7,M,-21.2,M,,*63}*32
{0A1125F4 $PUBX,04,180717.00,080724,151637.00,2322,18,-315403,-822.281,21*17}*3D
{MODE TimeValid PPS}*35
{0A281D1A P}*08
{0A29BFF0 $GPDTM,W84,,0.0,N,0.0,E,0.0,W84*6F}*3F
{0A2AE4CA $GPRMC,180718.00,A,4526.08594,N,12242.37640,W,0.347,,080724,,,A*68}*3F
{0A2D0EC9 $GPGGA,180718.00,4526.08594,N,12242.37640,W,1,09,1.05,176.7,M,-21.2,M,,*6B}*3F
{0A2F7BA4 $PUBX,04,180718.00,080724,151638.00,2322,18,-316225,-822.021,21*1E}*47
{MODE TimeValid PPS}*35
{0A46A17E P}*07
{0A486D79 $GPDTM,W84,,0.0,N,0.0,E,0.0,W84*6F}*36
{0A49924B $GPRMC,180719.00,A,4526.08593,N,12242.37669,W,0.434,,080724,,,A*66}*4F
{0A4BBC52 $GPGGA,180719.00,4526.08593,N,12242.37669,W,1,09,1.05,176.6,M,-21.2,M,,*67}*4F
{0A4E2924 $PUBX,04,180719.00,080724,151639.00,2322,18,-317047,-822.081,21*13}*34
{MODE TimeValid PPS}*35
{0A6525E2 P}*74
{0A66CA75 $GPDTM,W84,,0.0,N,0.0,E,0.0,W84*6F}*46
{0A67EF50 $GPRMC,180720.00,A,4526.08598,N,12242.37677,W,0.229,,080724,,,A*62}*38
{0A6A1945 $GPGGA,180720.00,4526.08598,N,12242.37677,W,1,08,1.23,176.3,M,-21.2,M,,*69}*41
{0A6C8614 $PUBX,04,180720.00,080724,151640.00,2322,18,-317869,-821.897,21*1F}*4F
{MODE TimeValid PPS}*35
{0A83AA46 P}*0E
{0A856288 $GPDTM,W84,,0.0,N,0.0,E,0.0,W84*6F}*4F
{0A868762 $GPRMC,180721.00,A,4526.08596,N,12242.37690,W,0.273,,080724,,,A*6B}*43
{0A88B162 $GPGGA,180721.00,4526.08596,N,12242.37690,W,1,08,1.23,176.2,M,-21.2,M,,*6E}*33
{0A8B1E28 $PUBX,04,180721.00,080724,151641.00,2322,18,-318691,-821.816,21*10}*4C
{MODE TimeValid PPS}*35
{0AA22EAB P}*00
{0AA3DC58 $GPDTM,W84,,0.0,N,0.0,E,0.0,W84*6F}*3E
{0AA50135 $GPRMC,180722.00,A,4526.08598,N,12242.37713,W,0.325,,080724,,,A*6E}*37
{0AA72B3E $GPGGA,180722.00,4526.08598,N,12242.37713,W,1,08,1.23,176.0,M,-21.2,M,,*6B}*36
{0AA99805 $PUBX,04,180722.00,080724,151642.00,2322,18,-319514,-821.842,21*1E}*4F
{MODE TimeValid PPS}*35
{0AC0B30F P}*73
{0AC26AC7 $GPDTM,W84,,0.0,N,0.0,E,0.0,W84*6F}*34
{0AC38FAE $GPRMC,180723.00,A,4526.08594,N,12242.37753,W,0.322,,080724,,,A*60}*35
{0AC5B9CB $GPGGA,180723.00,4526.08594,N,12242.37753,W,1,08,1.23,175.5,M,-21.2,M,,*64}*33
{0AC8268F $PUBX,04,180723.00,080724,151643.00,2322,18,-320337,-822.095,21*12}*49
{MODE TimeValid PPS}*35
{0ADF3773 P}*05
{0AE0E52A $GPDTM,W84,,0.0,N,0.0,E,0.0,W84*6F}*30
{0AE20A07 $GPRMC,180724.00,A,4526.08594,N,12242.37775,W,0.414,,080724,,,A*61}*3E
{0AE433FA $GPGGA,180724.00,4526.08594,N,12242.37775,W,1,08,1.23,175.3,M,-21.2,M,,*61}*49
{0AE6A0E9 $PUBX,04,180724.00,080724,151644.00,2322,18,-321160,-822.114,21*1B}*4F
{MODE TimeValid PPS}*35
{0AFDBBD8 P}*79
{0AFF6BDD $GPDTM,W84,,0.0,N,0.0,E,0.0,W84*6F}*32
{0B0090C4 $GPRMC,180725.00,A,4526.08598,N,12242.37759,W,0.203,,080724,,,A*62}*42
{0B02BAB7 $GPGGA,180725.00,4526.08598,N,12242.37759,W,1,08,1.23,175.1,M,-21.2,M,,*60}*48
{0B052794 $PUBX,04,180725.00,080724,151645.00,2322,18,-321981,-821.776,21*1D}*3F
{MODE TimeValid PPS}*35
{0B1C403C P}*02
{0B1DEE39 $GPDTM,W84,,0.0,N,0.0,E,0.0,W84*6F}*3A
{0B1F1316 $GPRMC,180726.00,A,4526.08598,N,12242.37759,W,0.122,,080724,,,A*61}*4E
{0B213D1E $GPGGA,180726.00,4526.08598,N,12242.37759,W,1,08,1.23,174.9,M,-21.2,M,,*6A}*47
{0B23A9E5 $PUBX,04,180726.00,080724,151646.00,2322,18,-322803,-821.692,21*1E}*39
{MODE TimeValid PPS}*35
{0B3AC4A0 P}*70
{0B3C8FC8 $GPDTM,W84,,0.0,N,0.0,E,0.0,W84*6F}*30
{0B3DB4A2 $GPRMC,180727.00,A,4526.08597,N,12242.37774,W,0.059,,080724,,,A*6D}*37
{0B3FDE96 $GPGGA,180727.00,4526.08597,N,12242.37774,W,1,08,1.23,174.5,M,-21.2,M,,*67}*47
{0B424B68 $PUBX,04,180727.00,080724,151647.00,2322,18,-323626,-821.808,21*1B}*4C
{MODE TimeValid PPS}*35
{0B594904 P}*01
{0B5B0CE0 $GPDTM,W84,,0.0,N,0.0,E,0.0,W84*6F}*34
{0B5C319D $GPRMC,180728.00,A,4526.08595,N,12242.37755,W,0.063,,080724,,,A*6A}*4E
{0B5E5BBA $GPGGA,180728.00,4526.08595,N,12242.37755,W,1,09,0.95,174.4,M,-21.2,M,,*65}*38
{0B60C880 $PUBX,04,180728.00,080724,151648.00,2322,18,-324447,-821.729,21*15}*3E
{MODE TimeValid PPS}*35
{0B77CD69 P}*0C
{0B797CB6 $GPDTM,W84,,0.0,N,0.0,E,0.0,W84*6F}*4B
{0B7AA19D $GPRMC,180729.00,A,4526.08594,N,12242.37739,W,0.127,,080724,,,A*61}*47
{0B7CCB90 $GPGGA,180729.00,4526.08594,N,12242.37739,W,1,09,0.95,174.3,M,-21.2,M,,*68}*40
{0B7F3876 $PUBX,04,180729.00,080724,151649.00,2322,18,-325268,-821.682,21*1F}*49
{MODE TimeValid PPS}*35
